,Restaurant_Id,Name,Rate,Count of Rates,deliveryTime,City Name,Address,Latitude,Longitude
0,4d6f01fe-3279-4064-9c1c-6693cf533e54,کافه رستوران نایریکا,4.06,96.0,30 تا 55 دقیقه,تهران,خیابان پونک، خیابان مخبری (35 متری گلستان)، نرسیده به سردار جنگل، پلاک 79,35.75617686558094,51.32493878714741
1,fdfa5aaf-2d9b-4b0e-a2ec-25fdaab3f835,رستوران شاندیز گالریا,4.73,75.0,35 تا 65 دقیقه,تهران,خیابان ولنجک، خیابان13، پلاک 5، طبقه 6,35.80741619412945,51.40486836433411
2,ebb5ece2-07e6-4900-85e0-3c353fa449ac,رستوران چاشنی,3.9,102.0,60 تا 90 دقیقه,تهران,شریعتی، ابتدای دولت، جنب حسینیه یزدی ها، پلاک 403,35.777940581219,51.443020105361946
3,f90df589-1b38-49d4-92ff-615f26de5863,رستوران طهرونچی,4.16,43.0,40 تا 60 دقیقه,تهران,خیابان میرداماد، کوچه دفینه، رستوران طهرونچی,35.76208626342791,51.41370641067625
4,cf9670ae-ebb1-4f9f-9689-7feb1f09aaeb,آش و حلیم سید مهدی,3.99,123.0,40 تا 55 دقیقه,تهران,اندرزگو، نرسیده به میدان صالحی، پلاک 16,35.80163564783605,51.458501815795906
5,bded2d7d-71ec-4e7b-88b0-fde0aaac019c,کافه نفس,4.32,56.0,20 تا 40 دقیقه,تهران,خیابان انقلاب، خیابان وصال شیرازی، پلاک 7,35.701378879239584,51.400335788639495
6,e644e28a-3611-4bd5-abd8-4cca5d7068da,رستوران دمکافه,3.75,8.0,15 تا 25 دقیقه,تهران,جردن، خیابان عاطفی شرقی، پلاک 18,35.77198669482197,51.421551704406745
7,96898052-9014-4866-a272-e4ac454498b1,کافه پارادیزو,0.0,0.0,25 تا 45 دقیقه,تهران,تهران، خیابان مطهری، خیابان مهرداد، پلاک 12,35.7231056244065,51.42939627126908
8,34a1f583-6835-4731-b400-e637a5c7379d,کافه GRAB & GO,4.6,5.0,25 تا 45 دقیقه,تهران,تهران، خیابان پاسداران، خیابان تنگستان چهارم، مجتمع اداری حیات سبز، طبقه همکف دوم، واحد 2,35.80591091407218,51.47035717964173
9,ba092dbb-7841-464c-9cff-7f2e21c3a3fb,رستوران آماتا,4.1,49.0,25 تا 45 دقیقه,تهران,بلوار آرش شرقی به سمت مدرس، بعد از فرید افشار، پلاک 21، آشپزخانه مسجد امام حسن عسگری,35.769990360392136,51.42498850735138
10,410474ff-ca36-4e03-a69c-73bf4a5d722c,کافه کانکشن,0.0,0.0,25 تا 45 دقیقه,تهران,شمس آباد، استاد حسن بنا شمالی، نرسیده به میدان ملت، 3 راه پیاله، ابتدای خیابان ابوالحسنی، پلاک 129,35.752105261504816,51.47489905335534
11,2c78ddef-acca-42a9-9c8d-d5419c0a29e9,فست فود بلوط,4.04,249.0,50 تا 60 دقیقه,تهران,باغ فیض، خیابان 22بهمن، خیابان شهید ناطق نوری، پایین تر از امام زاده,35.74786338189138,51.32554292657006
12,da9ef4fd-53db-4e9f-8e65-e6d0b70f08e6,رستوران نایب,4.41,491.0,40 تا 50 دقیقه,تهران,سعادت آباد، میدان کاج، مرکز تجاری ابریشم,35.782605888238145,51.37554645538331
13,89ca6ee8-2083-41aa-8813-425d2bb26d13,فست فود دراگون,4.29,194.0,30 تا 50 دقیقه,تهران,مجیدیه شمالی، خیابان استاد حسن بنا،پایین تر از میدان ملت،پلاک 703,35.75292299120052,51.475244164466865
14,79c3981a-abcc-4488-896b-0a1011ab8158,رستوران بوکا,4.51,264.0,35 تا 55 دقیقه,تهران,نیاوران، شمال کاخ نیاوران، خیابان پور ابتهاج، پلاک 303,35.81342832876107,51.47515833377838
15,e5e698e3-5b34-4292-b64e-564d2f0a416d,پیتزا پاپیون,4.44,502.0,25 تا 50 دقیقه,تهران,گیشا، نبش خیابان 31,35.737394853670054,51.37623846530914
16,a6b256dc-d417-4592-9ad1-28ba4f9c5bae,فست فود دهه شصت,3.73,55.0,30 تا 45 دقیقه,تهران,نیاوران، جمشیدیه، انتهای فیضیه، تقاطع امیدوار، پلاک35,35.81885713013122,51.463651657104485
17,2af0ff99-60d3-4c10-b265-98bc0111de58,فست فود بلوبرگر,4.21,191.0,45 تا 55 دقیقه,تهران,سعادت آباد، ضلع شمال شرقی میدان کاج,35.78244922192265,51.374945640563965
18,22e9ab3d-376e-4a1c-9ad0-249767763e1c,چلوکباب ناب,4.03,200.0,25 تا 50 دقیقه,تهران,تهرانسر، ابتدای بلوار لاله، پلاک6,35.69807442707909,51.26527547836304
19,388c49ea-bf38-4b98-b5fb-8bd0505052a9,  تهران برگر,4.52,124.0,30 تا 50 دقیقه,تهران,نیاوران، سه راه یاسر، پلاک 281,35.812840935289785,51.45079855406948
20,a413dac7-3fb2-4287-857d-1136df0d1d0e,فست فود دانوب,3.94,189.0,20 تا 45 دقیقه,تهران,شریعتی، بالاتر از سیدخندان، روبروی پارک شریعتی، نبش کوچه خوی، پلاک 953,35.74641647597758,51.4490818977356
21,baa34177-fab2-4b80-b0dd-5b80ec9f37e8,فست فود سوخاری برگر,3.58,24.0,32 تا 52 دقیقه,تهران,سعادت آباد، سرو غربی، خیابان بخشایش، انتهای زند وکیلی غربی,35.77801456676892,51.36299371719361
22,12b36417-ba36-49a0-a9ea-2f37919c128c,پیتزا هات,3.67,123.0,35 تا 50 دقیقه,تهران,میدان پونک، خیابان میرزابابایی، بلوار عدل شمالی، خیابان کربلایی احمد، روبه روی پلاک 7، پیتزا هات,35.755631524527885,51.32891178174759
23,d910ee3f-b6df-41ba-8c12-5a9068f72067,پیتزا هات,4.15,531.0,35 تا 55 دقیقه,تهران,یوسف آباد، نبش خیابان 60ام، پلاک 440/5,35.738418110301176,51.40571057796478
24,366545c4-6c55-4e6a-91da-48b5d3f44b03,فست فود بیست تیک,3.72,150.0,55 تا 60 دقیقه,تهران,فلکه دوم شهران، خیابان یکم جنب بانک ملت,35.76507910577896,51.28621280193329
25,8dfb4b93-d281-4663-af62-4bebd7ba5be5,فست فود VIP ظفر,3.95,137.0,25 تا 55 دقیقه,تهران,ظفر، فریدافشار، بلوار آرش شرقی، پلاک 15، رستوران ایتالیایی وی آی پی,35.769377999999996,51.429038399999996
26,643199d2-8141-4971-a90e-17f541530293,رستوران گل یخ,3.69,501.0,20 تا 40 دقیقه,تهران,خیابان طالقانی غربی، نبش خیابان قدس، روبه روی درب شرقی دانشگاه تهران,35.70453044048427,51.396843194961555
27,f1f46ecc-0c15-49e1-b6df-20738efce02b,  ذغالی برگر پارک,4.29,73.0,45 تا 55 دقیقه,تهران,یوسف آباد، خیابان 21، کوچه تهرانی، روبروی پارک شفق، پلاک28,35.72961311468252,51.40754533465952
28,e1f32a95-df2e-4675-b08a-aad6d41d2c39,فست فود سیوان,4.26,136.0,30 تا 65 دقیقه,تهران,هروی، خیابان وفامنش، نبش شقایق,35.7735456,51.477589599999995
29,ca1691cd-0240-49d9-9e87-ba1c378babb7,  آفرود برگر,4.07,86.0,39 تا 61 دقیقه,تهران,سعادت آبادسرو غربی خیابان صدف خیابان صنوبر شرقی پلاک 17,35.78033419644402,51.36600852012635
30,b01c106b-4c7c-4c12-bc61-aeef5e52b543,رستوران مالیبو,4.28,69.0,50 تا 85 دقیقه,تهران,ولنجک، بلوار دانشجو، قبل از میدان البرز، پلاک 17,35.810383165501,51.39067143201829
31,fcf317d5-82e3-44ce-813e-d04a5e7c6faf,کبابسرای توچال,3.43,14.0,20 تا 40 دقیقه,تهران,ضلع شمال شرقی میدان تجریش، پلاک 7,35.8070433,51.4293173
32,1f7b0254-3306-48fd-a9bf-6e15c757577d,پیتزا خانه,3.2,51.0,25 تا 40 دقیقه,تهران,فلکه چهارم تهرانپارس، خیابان توحید، روبروی پارک پلیس، نبش 17 شرقی,35.7597695703193,51.54085372108967
33,63c55b5c-b186-4b48-91b4-01134faaa10f,فست فود کاخک تیامو,4.13,264.0,25 تا 70 دقیقه,تهران,بلوار کشاورز، بعد از تقاطع فلسطین، نرسیده به میدان ولیعصر، پلاک 44,35.71067812399596,51.40481829621423
34,c745f7be-9cc8-48e4-b9f9-5067818c3bc1,تهیه غذای جوان,4.26,133.0,25 تا 55 دقیقه,تهران,پاسداران، نبش بهارستان یکم، پلاک 3,35.780329844481734,51.467294096946716
35,6c7a3942-dc59-427a-b024-71296c696b90,  کافه ساندویچی وان,3.65,86.0,50 تا 60 دقیقه,تهران,هفت تیر، ابتدای بزرگراه مدرس، نبش کوچه شایگان، پلاک 37,35.72026384538231,51.427081376241404
36,13e56f6a-cee9-4518-925a-31ab0705d5b3,کته کباب طبرستان,3.99,252.0,70 تا 100 دقیقه,تهران,پایین تر از میدان نیاوران، خیابان موحد دانش، خیابان فیروز بخش، مجتمع تجاری صاحبقرانیه,35.8119764529867,51.45732834935189
37,81657176-114b-4bfc-9d21-0b711737fa26,فست فود تیاکو,4.63,81.0,40 تا 55 دقیقه,تهران,دزاشیب، چهارراه اسدی، خیابان رمضانی، پلاک14,35.80155261939818,51.44059203565122
38,951c574f-5b94-4b56-ad8b-f842e7886e6a,رستوران صد و ده,4.03,58.0,30 تا 43 دقیقه,تهران,بزرگراه رسالت، بین ۱۶ متری اول و دوم، پلاک ۱۰۵۷,35.73995514767729,51.47083461284638
39,9b2db7da-dc05-4efa-8e0e-67d122270036,فست فود مکروم,3.97,111.0,40 تا 60 دقیقه,تهران,پیروزی، چهارصد دستگاه، پلاک 832,35.6904591,51.459776
40,984e75d8-bf4d-4c8a-8623-325e50284e93,رستوران گردو,4.35,40.0,45 تا 75 دقیقه,تهران,گلبرگ غربی، خیابان حیدری، پلاک96,35.7237224,51.4674162
41,aa3e09a1-8272-4a22-ac73-679afce92973,  سوخاری مهدی,4.27,286.0,45 تا 55 دقیقه,تهران,پیروزی، خیابان پنجم نیروی هوایی، فلکه دوم,35.69775858305176,51.48732617497445
42,b7a0bf69-a22c-45c7-85db-4ed98b3fa1f6,رستوران نیدا لانژ,4.13,16.0,20 تا 40 دقیقه,تهران,نیاوران، خیابان شهید مقدسی (مژده) خیابان میری، پلاک 28,35.8161306,51.4343632
43,82325bf7-d777-4f7a-a81c-d80d994cb5e0,کترینگ پارسی,3.9,183.0,55 تا 60 دقیقه,تهران,خیابان بنی هاشم، خیابان رحیمی، پلاک 65,35.753234263139355,51.46173119544983
44,a43e654c-559d-442f-8cc0-7d8a28d6ca81,فست فود ونک,3.68,71.0,30 تا 50 دقیقه,تهران,شهرآرا، خیابان آرش مهر، رو به روی پارک، پلاک 40,35.7231433,51.372361600000005
45,8ad16a44-f3cd-49fd-8d1d-a03e0a6d24ba,کترینگ کریمخان (غفاری سابق),3.86,262.0,45 تا 50 دقیقه,تهران,خیابان کریم خان زند، خیابان میرزای شمالی، نبش کوچه سوم، پلاک 17,35.71619088863096,51.41675055027009
46,1c0b5e5b-4f40-4f34-878b-84547303af35,فست فود ژینر,4.14,37.0,20 تا 40 دقیقه,تهران,خیابان دربند، روبروی کاخ سعد آباد، جنب بانک ملی، پلاک 161,35.820318667075945,51.426063179969795
47,09df365d-45b8-4fe9-84fe-79633a7b13e1,رستوران آواچی,4.23,127.0,30 تا 60 دقیقه,تهران,پاسداران، بالاتر از سه راه اقدسیه، پلاک 585,35.805967471353135,51.47219717502594
48,861487f3-02f4-4d53-a238-184da13fa9b4,برگر مزرعه برگر,4.16,19.0,20 تا 40 دقیقه,تهران,خیابان اندرزگو، تقاطع خیابان قیطریه، نبش کوچه شریفی منش، پلاک 70,35.79869735536437,51.4471185207367
49,f25cd1c7-56b8-4a31-a86f-b6671a67f591,سوخاری آریو,4.39,377.0,35 تا 60 دقیقه,تهران,خیابان پیروزی، ابتدای خیابان شکوفه، پلاک 365,35.689722654583434,51.45210206508637
50,728a0803-f47a-4fb5-8542-da025266bce9,رستوران آواچی,4.21,167.0,30 تا 45 دقیقه,تهران,الهیه، انتهای خیابان مریم شرقی، ابتدای بوستان پلاک 4,35.785414949909395,51.42923891544343
51,bd4e48f1-2bc4-438c-877d-8e91bdc9852f,رستوران آواچی,4.35,145.0,35 تا 55 دقیقه,تهران,سعادت آباد، کوی فراز روبروی پارک سعادت اباد،  پلاک 4,35.78736375535682,51.37564659162308
52,9ddbb610-f5a4-424f-9974-010803c51839,پیتزا آیدا,4.29,14.0,15 تا 55 دقیقه,تهران,خیابان امیرآبادشمالی، روبروی بیمارستان، مرکز قلب تهران، پلاک 1811,35.72055930604749,51.388957500457764
53,2bdcf99d-810c-43fe-9892-2ab237fb13e0,  کبابخانه موسوی,4.52,92.0,40 تا 75 دقیقه,تهران,خیابان شریعتی، پایین تر از طالقانی، پلاک 161,35.70602021549291,51.43360018730164
54,66425732-9d18-4cec-8766-b0a69d2ab928,رستوران ایتالیایی سورینو,4.26,43.0,50 تا 75 دقیقه,تهران,خیابان پیروزی، جنب تقاطع اتوبان امام علی، روبروی مجتمع تجاری پرواز,35.69030517815565,51.46082416154968
55,a6010e72-7dd6-4d01-9123-dbbe662f3a7c,فست فود شعله,4.03,74.0,30 تا 45 دقیقه,تهران,پیروزی، خیابان پنجم نیروهوایی، ضلع جنوب غربی فلکه دوم، بین بانک ملی و کشاورزی، پلاک 40,35.697612640906236,51.48654699325562
56,9269e4b0-bb50-4bdb-b2b5-d74a2d1ed0ad,فست فود پاییز,4.11,81.0,50 تا 80 دقیقه,تهران,شهرری، دولت آباد، بین فلکه اول و دوم,35.61865149860478,51.45013332366944
57,168d1455-d4f3-4496-85dd-4299f5ac2e40,تهیه غذای سهیل,4.64,83.0,20 تا 50 دقیقه,تهران,کوی گیشا، بلوچستان، پلاک 12,35.72610042033973,51.381320356886135
58,b05ce85f-74b3-46ee-a124-378a4799cb2b,غذاکده مائده,4.17,46.0,45 تا 60 دقیقه,تهران,مجیدیه شمالی، بالاتر از میدان ملت، نبش کوچه حسین پور، پلاک 1,35.75570262827096,51.47740066051484
59,d999d187-74c4-4575-8381-2c2155608eec,تهیه غذای قلیه سرای بوشهری,3.8,5.0,30 تا 51 دقیقه,تهران,اوین، خیابان شهید کچویی، کوچه مهدیه، بن بست لادن، پلاک 9,35.794877123524635,51.39144659042359
60,017c768c-a220-40e1-a1b9-d33045911772,پیتزا پیشخوان,3.92,59.0,40 تا 60 دقیقه,تهران,مطهری، رو به روی دریای نور، شماره 320,35.72376469229937,51.41802191734315
61,64be5cbe-be69-4ead-b9b1-b4bc12b1c0fc,  مرغ سوخاری دی,4.43,2530.0,35 تا 65 دقیقه,تهران,خیابان مطهری، بعد از چهارراه سهروردی، نرسیده به خیابان ترکمنستان پلاک 14,35.723816952963254,51.44064903259278
62,252983dd-4fce-4433-b9b0-793651952666,بستنی جلاتو هاوس GelatoHouse,4.7,1380.0,15 تا 80 دقیقه,تهران,شهرک غرب، بلوار دادمان غربی، خیابان فخارمقدم، پلاک 9,35.76656339574226,51.35738253593445
63,25f60720-52b9-439c-addf-30346c22fefb,رستوران گیلانه,4.37,322.0,50 تا 75 دقیقه,تهران,جردن، بلوار صبا,35.77152823877951,51.42274379701122
64,48ff20a8-c1a4-4843-8826-ae0ba77f4254,فست فود هیوا,4.54,987.0,45 تا 55 دقیقه,تهران,میدان تجریش، ضلع شمال شرقی,35.807059454036356,51.42919063568115
65,d93bee11-b269-4207-a17c-8d1fcd3cbd85,رستوران توتیا,3.87,866.0,45 تا 60 دقیقه,تهران,خیابان اشرفی اصفهانی، خیابان ناطق نوری، نبش قانع، پلاک 24,35.743069999999996,51.3307344
66,fcd56b18-04d0-493e-9f59-be0da058acbb,پیتزا هات,4.09,705.0,45 تا 50 دقیقه,تهران,امیر آباد، بلوار کشاورز، خیابان حجاب، پلاک 23,35.71631165396144,51.38952612876893
67,bf35f50f-a738-4811-8939-7c53d8927ea7,کافه رستوران هشت (Eight),4.24,323.0,45 تا 80 دقیقه,تهران,تهرانسر، خیابان 30 اصلی (آشوری)، پلاک57,35.69201871676696,51.25538349151612
68,22615307-730e-4373-b6e9-132ad56f0925,فست فود چهار پنج شش,4.4,211.0,30 تا 50 دقیقه,تهران,سردار جنگل شمال، بالاتر از نیایش، خیابان پنج تن، پلاک15,35.77085941029117,51.32561981678009
69,6efbee03-29e1-495f-9652-542bc2575c80,رستوران نمونه تهران,4.45,117.0,30 تا 55 دقیقه,تهران,خیابان محمد علی جناح، نبش بلوار شهید گلاب، پلاک 30,35.71806371904473,51.336166262626655
70,fae890f6-f8b4-41f1-8127-ef73ac03e964,فست فود پیلوت,3.59,41.0,25 تا 50 دقیقه,تهران,پونک، بلوار میرزابابایی غربی، بین ستاری و سردار جنگل، پلاک 162,35.76268478957628,51.32342591845373
71,0bbb5b6a-29bd-456f-bf11-6ee75375c8b9,رستوران گلزار,4.01,139.0,40 تا 60 دقیقه,تهران,خیابان رودکی، نرسیده به دام پزشکی، سمت چپ پلاک 530,35.68907347131665,51.37646913528443
72,34630555-562e-4595-a704-0fe57af67e04,رستوران خانه کوچک,4.34,721.0,35 تا 60 دقیقه,تهران,فاطمی غربی، خیابان سیندخت شمالی,35.717278297163844,51.38563513799455
73,873639ad-323e-4707-8cee-f8d3ab926e92,تهیه غذای شاران,4.45,182.0,35 تا 60 دقیقه,تهران,فلکه اول تهرانپارس، به سمت سه راه تهرانپارس پلاک 20,35.728072307759355,51.53171467765789
74,2a54ea59-76ad-4f8b-9856-1a7bdbc22c4c,فست فود ویس لند,4.24,1589.0,45 تا 65 دقیقه,تهران,بلوار کشاورز، بین خیابان 16 اذر و قدس، پلاک 258,35.70757965775322,51.393678188323975
75,822aec45-fcb3-47df-bab7-84a192e25b9d,فست فود تی تی هات,3.77,78.0,40 تا 55 دقیقه,تهران,پونک، بین خیابان سردار جنگل و عدل، خیابان اردیبهشت شرقی، بین خیابان خرداد و مرداد، کوچه تیر، پلاک 7,35.76504210699498,51.3303753733635
76,e8730f6d-3ee9-4908-aad3-300b34292aa1,پیتزا هات,4.18,508.0,40 تا 50 دقیقه,تهران,سهروردی شمالی پایین تر از پالیزی - پلاک 687,35.7378779,51.443374899999995
77,40bf398a-f6e8-423c-a32d-8dc3f0443a03,  جوان,4.39,407.0,45 تا 55 دقیقه,تهران,میدان نوبنیاد، کوهستان چهارم، اولین تقاطع سمت چپ، پلاک 15,35.79177910000001,51.4760194
78,5e9ca09b-2b86-40fe-a8b7-3d3ad407c058,رستوران قیمه قرمه,4.3,324.0,40 تا 65 دقیقه,تهران,میدان هفت تیر، جنب هتل مروارید، کوچه شاهد، پلاک2,35.717341399999995,51.426252299999994
79,9ff49826-ee13-4b42-9fd1-94b8be909a38,رستوران گل محمدی,2.73,59.0,25 تا 65 دقیقه,تهران,ستارخان، نرسیده به پل شیخ فضل الله، پلاک 606,35.720085,51.358180399999995
80,9eaeddbe-07b7-43c1-88f4-5f809db6cc9f,پیتزا در ب در,4.05,341.0,40 تا 70 دقیقه,تهران,خ شريعتي، بالاتر از سيد خندان، روبروي پارک کوروش (شریعتی )، پلاک 999,35.74877602573709,51.44944674888393
81,8d9d1776-2eef-4dac-b84a-efb33c022fcb,رستوران خانه کوچک,4.6,262.0,35 تا 55 دقیقه,تهران,شهرک غرب، خیابان سپهر، نبش کوچه ایمان,35.7670002,51.3521546
82,5be92152-4512-439f-b374-2357ce750037,فست فود تیان,4.39,95.0,30 تا 60 دقیقه,تهران,اشرفی اصفهانی، خیابان ابوذر، پیامبر شرقی، پلاک 25,35.73648044300146,51.32798552513123
83,86511721-cf0c-4e15-9734-cb89d718c623,کترینگ قائم,4.72,135.0,40 تا 60 دقیقه,تهران,شهران جنوبی، فلکه اول شهران، روبروی فرهنگسرای معرفت، جنب مسجد قائم، پلاک 4,35.758179623184844,51.28955483436585
84,bac81daf-3b59-4ae6-a1db-dc4d1700c5e3,پیتزا آهو,4.15,148.0,40 تا 50 دقیقه,تهران,انتهای یوسف آباد، خیابان شصت و سوم,35.74755703209581,51.40513122081757
85,4069d5d5-e435-45e9-b6ee-92f63168c90b,فست فود آمادو,4.0,235.0,35 تا 65 دقیقه,تهران,جنت آباد جنوبی، لاله شرقی، نرسیده به ستاری,35.74660804374419,51.31019711494446
86,bcdf05c2-5e08-41f9-a1e5-90da68be6774,تهیه غذای مرشد چلویی,4.39,4598.0,30 تا 50 دقیقه,تهران,میدان فردوسی، خیابان سمیه، نبش استاد نجات اللهی، پلاک 245,35.70416113930189,51.4158406855131
87,22709b65-d477-45a6-a31f-66818f24b31b,رستوران الو کباب,4.23,65.0,35 تا 60 دقیقه,تهران,وحدت اسلامی، قبل از خیابان مختاری، جنب تالار پذیرایی ققنوس، پلاک 161,35.66323183403204,51.40589848255332
88,31b2ec4c-761a-4f5b-9d44-8ccee4097ce2,رستوران آواچی,4.2,236.0,30 تا 60 دقیقه,تهران,آپادانا (خرمشهر)،نیلوفر(عشقیار)، پائین تر از میدان نیلوفر,35.73693329531173,51.43283843994141
89,88e577d1-ad36-4488-9ae2-9b3f3cb6a553,پیتزا دانی,4.27,167.0,35 تا 50 دقیقه,تهران,بلوارفردوس غرب، تقاطع شقایق، کوچه 19، پلاک 33,35.727288099999996,51.3043445
90,a06f70b1-d5fe-448c-9146-dda8dc9fde62,فست فود آرتین,4.2,120.0,35 تا 60 دقیقه,تهران,فرجام، نرسیده به فلکه دوم تهرانپارس، بین عادل و زرین، پلاک 54,35.73522637700913,51.526275873184204
91,3af40d52-ca7c-4cf2-8ec4-f88e744ee96e,تهیه غذای ریحانه,4.09,105.0,40 تا 55 دقیقه,تهران,شهران، خیابان طوقانی، بین کوچه هرمزی و افشار، پلاک 11,35.75627290985548,51.2928593158722
92,eea89a36-09bc-4e3a-b62f-74d394b41a3f,رستوران و فست فود آرمن,4.29,178.0,35 تا 50 دقیقه,تهران,خیابان مطهری، نرسیده به سهروردی، نبش کوچه سنندج، پلاک 110,35.724304717506385,51.43380403518677
93,f2658c87-e3b2-4aa9-b14c-568c5312feae,پیتزا مارتین,4.3,179.0,35 تا 50 دقیقه,تهران,خیابان کارگر شمالی، بالاتراز جلال آل احمد، مابین کوچه 13و14,35.727299831178804,51.3882876187563
94,54130aeb-d478-4ddf-b45d-0e729a70158e,رستوران عرشیا سپهر دنیا,3.91,430.0,40 تا 80 دقیقه,تهران,خیابان فاطمی، بلوار گلها، خیابان مرداد، نبش خیابان خرداد,35.722327510607684,51.398066282272346
95,49dac5e1-6440-4999-92f2-b407cd8f68b3,رستوران بوفالو,4.11,217.0,29 تا 56 دقیقه,تهران,چهارراه ولیعصر، روبروی تئاتر شهر، پلاک 1456,35.70079281222797,51.40487372875213
96,b9c951a0-9ecc-4760-8369-741747712e48,برگر زغالی,4.43,281.0,25 تا 40 دقیقه,تهران,شریعتی، خیابان دستگردی، پلاک90,35.765280204804036,51.43740248706309
97,60eb960d-c55d-44c0-97fd-a60608342526,رستوران خانه کوچک,4.38,224.0,40 تا 75 دقیقه,تهران,مرزداران، سرسبز جنوبی، کوچه عشقی پور,35.73020120613699,51.35982871055603
98,f0079127-8c12-4aa4-ad3c-81766a5b4295,کبابسرای آیدا,4.19,188.0,45 تا 70 دقیقه,تهران,خیابان شریعتی، بالاتر از پل سید خندان، خیابان ابوذر غفاری، نبش کوچه چهاردهم، پلاک 55,35.74589401608899,51.45181775093079
99,2569063f-6026-43b7-b8ba-8cd3181007fe,ساندویچ ویژه اژدر زاپاتا,3.93,28.0,40 تا 75 دقیقه,تهران,شهرک سرو آزاد، جنب دریاچه چیتگر، خیابان گودرزی، بین کوچه 11و12 غربی,35.73613789933574,51.189930439431926
100,03c97020-c170-4dd4-a109-8cbfde357afd,تهیه غذای راد,4.15,775.0,45 تا 90 دقیقه,تهران,خیابان جمالزاده، بالاتر از خیابان آزادی، پلاک 206، تهیه غذای راد,35.695861314326116,51.393114924430854
101,ee1a089f-ab55-4188-8286-7618434d1505,فست فود شیث,4.23,155.0,40 تا 50 دقیقه,تهران,شهرک غرب، فاز5، خیابان سیمای ایران، خیابان نصر 11، پلاک6,35.752816331305056,51.355770528316505
102,70020a08-f8b6-4d97-83ce-e225e0ea44a6,فست فود شیدسا,4.18,418.0,40 تا 60 دقیقه,تهران,ستارخان، بعد از شهرآرا، نرسیده به پارک ستارخان,35.715032324989856,51.367891430854804
103,9de23ff4-5187-47d4-8436-d9600d9f9320,رستوران و فست فود پرشین,3.98,96.0,25 تا 50 دقیقه,تهران,پاسگاه نعمت آباد، خیابان زمزم، نرسیده به بزرگراه شهید کاظمی، پلاک 35,35.63810700135221,51.357182711362846
104,e695c5db-f227-4450-ba84-d6a47371b0d5,  کنتاکی برگر KFS,3.34,88.0,30 تا 50 دقیقه,تهران,خیابان شریعتی، پایین تر از سه راه طالقانی، نبش بیمارستان پاسارگاد، پلاک 132,35.705830305110325,51.43310192899663
105,921245f9-ed12-4694-9f32-6fb6e99cd0d6,رستوران شاهو,4.06,155.0,50 تا 75 دقیقه,تهران,اتوبان صدر به سمت غرب، خیابان قلندری شمالی، نبش کوچه 14، پلاک 1/1,35.78554187401392,51.44080638841843
106,9c39544b-9dc3-4b30-97c3-14d3f613dcf0,آشپزخانه نایب,4.24,407.0,60 تا 70 دقیقه,تهران,نیاوران، روبروی جماران ، نبش بن بست ناز,35.81188836079337,51.45934939384461
107,35a2a480-69ad-4968-9300-e70b4c0f754d,رستوران صدف 2,4.18,221.0,70 تا 75 دقیقه,تهران,ميدان رسالت، خيابان هنگام، خيابان دلاوران، خيابان سراج، بالاتر از پمپ بنزین، پلاك 592,35.7518287,51.5197857
108,e68cb04e-bb9d-4569-adb5-8191d7ca1145,رستوران آماتا,4.04,119.0,35 تا 70 دقیقه,تهران,انتهای همت غرب، شهرک شهید باقری، گلستان 8، بوستان 14 غربی,35.76116584493223,51.20568215847016
109,b74d66b2-8262-4a20-9376-d59e14fe318d,برگر زغالی,4.28,130.0,35 تا 50 دقیقه,تهران,بلوار 35متری قیطریه، شماره49,35.79308442294107,51.45188212394715
110,6462d281-e3cf-4078-8b8e-b6398e9f5bab,رستوران ایتالیایی تومو,4.21,38.0,30 تا 65 دقیقه,تهران,خیابان فرشته، خیابان فیاضی، مجتمع سام سنتر، طبقه همکف,35.79094901139618,51.41972109675408
111,e19cddcb-edcb-4134-a432-53aa8e52912a,غذای‌ایرانی دریا,4.39,284.0,30 تا 65 دقیقه,تهران,شهرک غرب، خیابان هرمزان، مسجد الزهرا، بن بست مهرگان، جنب سوپرمارکت، پلاک 3,35.763856540895176,51.37391495656631
112,2f82595c-284f-4561-a57f-9f5f4944f312,آشپزخانه امیران,4.19,108.0,30 تا 60 دقیقه,تهران,ولنجک، میدان دانشگاه شهید بهشتی، ابتدای خیابان درکه، پلاک 4,35.79538765859778,51.39717221216416
113,54654674-1665-4515-bc90-4bc01fb338fd,  کافه کباب حسینی,4.08,37.0,55 تا 80 دقیقه,تهران,خیابان رودکی، بعد از چهار راه مرتضوی، پلاک 146,35.684193535364436,51.37695193290711
114,527f0df3-7391-40ee-9f96-6376fe3bad69,تهیه غذای زیتون,4.43,49.0,30 تا 50 دقیقه,تهران,اشرفی اصفهانی، باغ فیض، خیابان ناطق نوری، کوچه شهید نادعلی، پلاک 2/1,35.74632939956762,51.3260167837143
115,0e54b2e1-b6d1-40d1-b22c-0029c8c600b6,پیتزا پنجره,4.38,268.0,30 تا 45 دقیقه,تهران,سعادت آباد، بلوار پاکنژاد، آسمان 12 شرقی، خیابان گل افشان، پلاک 20,35.782823479830746,51.35885238647461
116,fe7ad6f3-28fe-477a-8633-15683ac56b3b,رستوران لیمو ریحون,3.91,99.0,25 تا 70 دقیقه,تهران,سعادت آباد، روبروی بیمارستان مدرس، پلاک 173,35.787070748433045,51.37332558631898
117,186db7ec-1139-42d3-a395-0b0f224ea43f,رستوران برگ سبز,4.23,26.0,40 تا 50 دقیقه,تهران,شهرری، میدان عبدالعظیم، پشت سازمان آب، میدان نارنج,35.58894896751495,51.441518068313606
118,9b5b53e6-292a-4e23-a1a1-d4fae25237e3,تهیه غذای آریا پخت,4.48,111.0,50 تا 65 دقیقه,تهران,شهرری، ابتدای بلوار بسیج، بعد از اداره گذر نامه، پ 402,35.607687707080956,51.42722725868226
119,48824fac-8a91-400d-9251-614e3d577494,فست فود پاییز,4.04,113.0,50 تا 60 دقیقه,تهران,نازی آباد، خیابان بازار دوم، پلاک 364,35.63841981169033,51.40206009149552
120,cdda4efb-7aa6-4ec7-80b5-4129f806192a,فست فود آریو,4.26,223.0,20 تا 40 دقیقه,تهران,اکباتان، خیابان ریاحی، کوچه سیزدهم، ساختمان آیسا، طبقه همکف,35.70747608310982,51.32228136106278
121,9a947ff3-8e9a-44cb-9d94-da54dec4b6f4,پیتزا هات,4.01,129.0,45 تا 65 دقیقه,تهران,خیابان کاشانی ، بلوار اباذر، نبش شالی، جنب دادسرا,35.72958283564595,51.326698064804084
122,c0624a0d-e5f5-463f-85ee-d74b15c109be,تهیه غذای امیر رضا دهقانی,4.46,92.0,25 تا 55 دقیقه,تهران,خیابان نواب صفوی، خیابان هلال احمر، خیابان عباسی جنوبی، خیابان جعفری، پلاک 80,35.6653506962363,51.385011970996864
123,2da078a5-1578-4ed4-b0f9-718afa662269,رستوران خوان سالار,3.68,293.0,35 تا 65 دقیقه,تهران,خیابان آذربایجان، روبروی بیمارستان شهریار، پلاک1043,35.69958144193198,51.36663096025587
124,4db639f9-c99e-4229-ad87-3994fa3278cb,فست فود پاییز,4.17,244.0,45 تا 60 دقیقه,تهران,فلکه دوم صادقیه. ابتدای ستارخان  بلوار شهدای جنوبی پلاک41,35.721721872300634,51.33801983669401
125,2f172d19-aa10-44c8-a914-ede24ade2734,جگرکی شبزدگان,4.43,109.0,30 تا 50 دقیقه,تهران,سعادت آباد، میدان کاج، سرو شرقی، نبش کوچه چهارم، پلاک45,35.78316727333317,51.380390524864204
126,6b2c3ea6-f14e-4036-ad94-3fd5712de44d,  مرغ سوخاری دی,4.59,310.0,55 تا 75 دقیقه,تهران,زعفرانیه، مجتمع پالادیوم,35.797487780189705,51.41341924667359
127,314b4342-1269-473e-8a6b-d78901e0f325,رستوران آواچی,4.02,55.0,35 تا 50 دقیقه,تهران,اتوبان باکری، مجموعه هایپراستار,35.725288675394815,51.29545594565571
128,21bb1509-d006-415f-afa5-d4bb80b2b469,رستوران معلم,4.07,45.0,20 تا 40 دقیقه,تهران,چهارراه یافت آباد، میدان معلم، بلوار معلم، روبروی پمپ گاز، پلاک 159,35.657322400216565,51.32513165473939
129,32e63168-7bb7-46ae-8d1d-5232ad2b8c60,رستوران آب و آتش بناب,3.64,75.0,50 تا 75 دقیقه,تهران,پونک، خیابان مخبری، 35 گلستان، مابین سردارجنگل و دیوان عدالت، پلاک 101,35.756969431437064,51.3228303194046
130,1cb3085c-e9f0-498a-9669-8376a6cd8607,کترینگ اسنوژی,3.88,25.0,50 تا 60 دقیقه,تهران,شیخ بهایی شمالی، میدان ده ونک، خیابان صابری، کوچه دوم، پلاک 3، کترینگ و تشریفات اسنوژی,35.767638509298166,51.38975948095322
131,28e1cfa4-a9d6-4750-8632-e9e3e2d9ec2f,فست فود مریخ,4.11,262.0,30 تا 55 دقیقه,تهران,بلوار فردوس شرق، تقاطع رامین، پلاک 278,35.723024329211164,51.31885528564454
132,61f267de-dbc4-455b-9de9-40b7e02db35f,تهیه غذای صدر اعظم,3.39,67.0,50 تا 75 دقیقه,تهران,یوسف آباد، میدان سلماس، خیابان شهریار، نبش خیابان چهاردهم، پلاک 41,35.7262789722312,51.40226483388688
133,74959e33-23f8-45f5-823f-60dd323ceb04,فست فود ای تی اف ATF,4.0,262.0,50 تا 60 دقیقه,تهران,آیت الله کاشانی، بعد از پل حکیم، رو به روی خانه فرهنگ نور، پلاک 42,35.73443604402509,51.30874872207642
134,0fa027f5-5b1e-4ac4-a2c1-4758c5d2eddc,فست فود پله,3.74,70.0,40 تا 60 دقیقه,تهران,میدان هفت تیر، خیابان مفتح جنوبی، نبش بن بست نوبنیاد,35.7089038529277,51.425832509994514
135,181e17a7-6a4c-427f-86f4-b42a66c8234a,پیتزا هات,3.99,190.0,40 تا 70 دقیقه,تهران,ستارخان، انتهای خیابان شادمان، خیابان تیموری، خیابان شاداب,35.70195739082923,51.36184573173524
136,0560f772-ea1c-446a-93b1-7f30a1c9dadd,رستوران ریواس,4.31,297.0,30 تا 55 دقیقه,تهران,پارک وی، محمودیه، نبش خیابان الف,35.792161949599134,51.41090869903565
137,5e025372-5158-4275-8629-6a93cce96332,  مرغ سوخاری پنگوئن,4.01,89.0,20 تا 36 دقیقه,تهران,فلکه اول صادقیه، خیابان رحیمی جنوبی، پلاک 11,35.71850361003731,51.34069919586182
138,95cedbec-75df-48b6-abce-1e364c3c71ed,پیتزا غزال,3.81,47.0,20 تا 40 دقیقه,تهران,ازگل، ایستگاه مدرسه، پلاک 138,35.795085979214534,51.49758696556092
139,4d0ae083-e379-49dc-8408-ccf17b0f2873,فست فود دوگر چیکن,4.38,181.0,20 تا 40 دقیقه,تهران,اشرفی اصفهانی، ضلع شرقی پاساژ تیراژه، پلاک 162,35.74806846069631,51.331747658550746
140,30359e15-2343-45ca-a502-ffd376df349f,کافه ویونا,4.25,8.0,30 تا 45 دقیقه,تهران,سعادت آباد، بالاتر از بلوار کاج، بلوار بهزادی شمالی، مجتمع تندیس، طبقه همکف,35.78953806357483,51.375090479850776
141,c3dd53a5-e1b0-404b-9a90-dba97019cc09,اغذیه هاریکا,4.41,296.0,45 تا 55 دقیقه,تهران,فلسطین شمالی، پایین تر از زرتشت، نبش ساختمان یکتا، پلاک 479,35.71416533080028,51.40509387943894
142,3b23c8ad-2c77-45e8-aef9-e0e011ed9c6e,کترینگ آرون,4.19,118.0,40 تا 80 دقیقه,تهران,جنت آباد شمالی، خیابان گلزار شرقی، پلاک 53,35.76648939953787,51.307305693626404
143,e2fa916d-ecae-4f2c-9e77-134152609a33,کترینگ حس تازگی,4.07,274.0,40 تا 50 دقیقه,تهران,میدان ولیعصر، ابتدای خیابان کریم خان، پلاک 296,35.711377948120415,51.40793681144715
144,ede00b69-7754-42fe-8f81-7ae2bfd577c4,رستوران امیر,4.46,472.0,30 تا 55 دقیقه,تهران,یوسف آباد، بین خیابان چهارم و ششم,35.722937227219035,51.40845179557801
145,34bf2a71-54c7-4d3b-948b-b39d636d1c9e,پیتزا آتیش (وحدت),3.89,18.0,50 تا 70 دقیقه,تهران,پایین تر از میدان منیریه، خیابان فرهنگ، نبش کوچه سوم، پلاک 15,35.67777727250416,51.40724211931229
146,c6eeda37-49ec-4673-b6e9-20e02e8b2edd,  شمرون کباب,4.5,527.0,30 تا 60 دقیقه,تهران,میدان تجریش، ضلع شمال شرقی,35.80702465003902,51.42949104309082
147,2d3ca624-7c15-44c0-980c-8ce7519f4652,تهیه غذای شیرین پلو,4.76,25.0,30 تا 50 دقیقه,تهران,شادآباد خیابان 17 شهریور خیابان شهید کرمی کوچه 5 پلاک 5,35.67316900989525,51.295267939567566
148,3eb1809d-480e-48c8-907b-f40f0f5508ae,رستوران رندی,3.77,57.0,25 تا 42 دقیقه,تهران,جلفا، بلوار مجتبایی، انتهای خیابان دیانا,35.75052056946802,51.44463300683129
149,d4a82f66-da03-4c43-a529-7752fa0c53c4,  مستر دیزی,4.75,16.0,20 تا 40 دقیقه,تهران,قیطریه، روبروی بانک پارک قیطریه، کوچه حداد نژاد، نبش بن بست اتحادیه املاک پلاک4.1,35.79594750313237,51.44872248172761
150,4128b1f9-8c45-4c83-b432-45b60bd025a5,اغذیه لوتوس,4.49,228.0,25 تا 60 دقیقه,تهران,خیابان فلسطین شمالی، پلاک 486,35.71366903116475,51.404659152030945
151,1af13766-e479-4471-a924-c85ee054a96f,آشپزخانه تیان,4.29,68.0,33 تا 59 دقیقه,تهران,نیاوران، خیابان سعیدی، خیابان محمد عسگریان، پلاک 37,35.80255801065781,51.47007644220139
152,e92688f1-6dd2-4d93-898a-7525a0d65b44,کترینگ طهماسب,4.24,229.0,30 تا 50 دقیقه,تهران,میرداماد غربی، نبش خیابان دفینه، بازار بزرگ میرداماد، طبقه همکف، پلاک 29,35.76206014565843,51.41446815803648
153,f73d93c2-f99e-404b-b3dc-851a2c86ad72,رستوران گیاهی پیور,4.24,171.0,30 تا 60 دقیقه,تهران,شیخ بهایی، مجتمع ا اس پ، واحد 35 تجاری,35.744317907982854,51.39945030212402
154,7a60c369-8277-4e99-9cbf-33656f6cee07,فست فود ستاره بارون,4.49,59.0,28 تا 44 دقیقه,تهران,پیروزی، نبرد جنوبی، خیابان زمزم، خیابان شمشاد، پاساژ دیدار، طبقه دوم,35.662144134274115,51.479207659133415
155,523ccff8-6529-4afe-9396-8ee9afbc8d47,رستوران محک,4.17,160.0,35 تا 60 دقیقه,تهران,میدان نوبنیاد، خیابان شهید لنگری، جنب بانک ملی، پلاک 42,35.80022017561984,51.48512005805969
156,7338e98a-d2d5-49d5-9f26-8b45f0d95685,  شمرون کباب,4.7,195.0,45 تا 62 دقیقه,تهران,نیاوران، بعد از چهارراه مژده، پلاک 455,35.81165344780005,51.447579860687256
157,64af6407-dc65-4161-b565-b99d2dc54e04,فست فود کاکتوس,4.08,98.0,25 تا 45 دقیقه,تهران,خیابان شهید ثانی، 46 متری غربی، نبش سمنگان، پلاک 2,35.72099482805454,51.485095023672336
158,b10c0709-68ab-46ba-9e79-e6264df8ae44,کافه رستوران eighty eight,4.11,36.0,22 تا 42 دقیقه,تهران,ولنجک، خیابان امیر آبادی، کوچه یاسمن یکم،  پلاک 19,35.80197138282703,51.39799520373345
159,00923b35-03c5-49ae-8169-acf1c2d0e677,گروه غذایی ونوس,4.0,94.0,24 تا 39 دقیقه,تهران,چهار راه نظام آباد، خیابان سبلان جنوبی، نرسیده به انصارالحسین، نبش کوچه اسدزاده، پلاک58,35.71121243006443,51.470094323158264
160,2d6740ac-81d2-4322-bd56-a55d24f4ae91,کترینگ فی دار,3.7,80.0,30 تا 50 دقیقه,تهران,جنت آباد جنوبی، خیابان چهار باغ شرقی، 16 متری اول شمالی، نرسیده به کوچه آذر پلاک 47 و 49,35.751836794967986,51.308271288871765
161,c2f3f605-1796-4a96-8c6a-6a4b3f7a4214,رستوران سنتی باغ فردوس,4.35,31.0,20 تا 40 دقیقه,تهران,خیابان ستارخان، روبروی باقرخان، پلاک 170,35.710541642844696,51.371716260910034
162,83694382-959a-4d00-8d1c-e849be3a3dee,تهیه غذای پارسی,3.9,60.0,32 تا 54 دقیقه,تهران,یوسف آباد، خیابان جهان آرا ، خیابان 16.2، پلاک 90 ، تهیه غذای پارسی,35.72811963001227,51.397696137428284
163,5c0d2e9d-9860-4340-a8e1-ae595705ab0c,رستوران ارکیده,4.23,39.0,34 تا 68 دقیقه,تهران,اکباتان، فاز2، خیابان گلها، مجتمع تجاری گلها,35.7084105,51.306956299999996
164,d800530d-e832-46dc-8562-d8a1908dc523,رستوران جاست سالاد,4.2,25.0,40 تا 80 دقیقه,تهران,الهیه، انتهای مهدیه، خیابان لسانی، مجتمع ورزشی باربد,35.781239399421516,51.43214106559754
165,aaf2401a-e674-4854-959d-09225a70b012,رستوران دوسانلی,4.43,94.0,20 تا 40 دقیقه,تهران,خیابان قزوین، خیابان قلعه مرغی یا برادران حسنی، جنب تالار سانلی,35.66501075218544,51.37481153011322
166,9984076e-b7a7-476d-ba64-b953030757b4,فست فود بیگ بوی,4.41,156.0,35 تا 70 دقیقه,تهران,عباس آباد، نرسیده به میدان تختی، جنب بانک پارسیان,35.73104601439998,51.433299779891975
167,c5d27e6d-f7b2-4bd3-a3f7-a344870bbced,رستوران سالی,3.76,37.0,30 تا 50 دقیقه,تهران,خیابان ولیعصر، ابتدای میرداماد، جنب موزه دفینه ،پلاک 458,35.76249785521784,51.414417028427124
168,506b590a-7c1b-409c-8056-c73756383514,فست فود صدف (فرجام),4.0,148.0,34 تا 53 دقیقه,تهران,رسالت، خیابان فرجام، نبش خیابان 41 (شهید آبگون),35.73909737127079,51.499072909355164
169,259f3189-30f6-4bfb-8eaf-31b217a3afd5,سفره خانه سنتی الهیه,3.67,9.0,20 تا 40 دقیقه,تهران,خیابان شریعتی نرسیده به پل صدر روبروی پمپ بنزین پلاک 1659,35.7817438,51.436109699999996
170,b530ab60-c92e-492b-be97-3f9d1f2d12ae,رستوران کومه,4.33,30.0,20 تا 40 دقیقه,تهران,شهرزیبا، بلوار تعاون، شربیانی شرقی، پلاک 1.1,35.740167050762736,51.29465103149415
171,72dc0f59-c802-412d-b184-86eb19cada0e,رستوران فلوت,4.04,50.0,32 تا 53 دقیقه,تهران,میدان تجریش، خیابان شهرداری، پلاک58,35.8048493699422,51.43281430006028
172,558d330b-db27-459c-8925-ce39f76d0562,  مستر دیزی,3.77,31.0,26 تا 48 دقیقه,تهران,ستارخان، خیابان خسروی شمالی، خیابان سازمان آب شرقی، زیر پل یادگار، نبش کوچه احمدی، پلاک 1,35.72466618394656,51.3497543334961
173,53042e34-ea78-44a7-8820-a09f0299086c,فست فود پیدن,4.09,112.0,30 تا 45 دقیقه,تهران,اشرفی اصفهانی، ابتدای شهرک نفت، روبروی کوچه یکم، پلاک 18,35.7797437,51.336000899999995
174,180a5cda-7d43-4b1c-98d9-6164a7caf27f,آبمیوه و بستنی یاسر,3.95,116.0,22 تا 41 دقیقه,تهران,خیابان ملاصدرا، ابتدای خیابان شیراز شمالی، پلاک 139,35.758681599999996,51.400270899999995
175,e9862bd1-6afa-41a3-b9e7-cdb97b5a1bd0,فست فود گل سرخ,3.97,31.0,25 تا 65 دقیقه,تهران,خیابان پیروزی، خیابان مقداد، نبش فلکه دوم، پلاک 7,35.68805393793833,51.48815631866456
176,b556e2d4-966f-4fa4-821d-62d1749fa1e6,فست فود دوپینگ,3.92,24.0,30 تا 50 دقیقه,تهران,سعادت آباد، خیابان ایثارگران شمالی، پلاک 53,35.785626006304284,51.35055363178254
177,f91acf04-7c60-4614-9257-790b583aefdf,رستوران مورانو,3.65,31.0,20 تا 40 دقیقه,تهران,سعادت آباد، نبش کوچه سوم، پلاک 3,35.785952381069265,51.37320220470429
178,8c3a6405-dbe9-405a-8536-84d567c61e9e,فست فود پدر خوب,3.91,310.0,40 تا 65 دقیقه,تهران,خیابان آزادی، مابین خیابان خوش و بهبودی، جنب وزارت کار، پلاک 237,35.7004763,51.3695112
179,da990145-4b28-4185-8f38-15974ae5be19,  هات داگ سنتر,4.06,34.0,20 تا 40 دقیقه,تهران,افسریه، 15 متری دوم، نبش خیابان 44,35.660898502823336,51.49610913125799
180,a979e0d4-ff19-4e94-83b5-6337b16dc70e,رستوران شاندیز جردن,4.66,297.0,55 تا 65 دقیقه,تهران,خیابان آفریقا، بالا تر از چهارراه اسفندیار، بلوار صبا، پلاک24,35.771325124370335,51.42229199409485
181,b2170e2b-458c-45a8-8a5f-b278a266098d,فست فود لیالی بیروت,3.6,10.0,19 تا 33 دقیقه,تهران,آریاشهر، فلکه دوم صادقیه، ابتدای ستارخان، بلوارشهدای صادقیه شمالی، پلاک 21,35.7221376,51.338062099999995
182,834c488e-4e76-45c0-ac12-1af02e1171c4,رستوران پدینو,3.96,25.0,20 تا 40 دقیقه,تهران,خیابان نیاوران، بین کاشانک و اجودانیه، خیابان اجودانیه، مجتمع تجاری عرش، طبقه دوم,35.8159661,51.4839722
183,b057abbc-7fb2-4886-99db-58ce33c2556a,فست فود جنیس,3.88,1318.0,30 تا 50 دقیقه,تهران,خیابان انقلاب، روبروی پارک دانشجو، پلاک825,35.70135041823947,51.40598416328431
184,1267d4e9-ade4-460b-8291-7dd5cc8bdb3f,کترینگ ایلیا طبخ,3.78,166.0,24 تا 48 دقیقه,تهران,میدان فاطمی، ابتدای گمنام، نبش بن بست اول,35.719888597500535,51.404348015785224
185,d10e052b-f4c4-4fe5-974e-a16ae99b9d14,کترینگ پارسی,3.76,139.0,30 تا 60 دقیقه,تهران,میدان هفت تیر، ابتدای پل کریمخان، خیابان حسینی، پلاک28,35.71542432209214,51.42074435949326
186,2f251233-7b8c-4de7-9f2e-54694cd41d29,فست فود سورن,4.45,276.0,31 تا 55 دقیقه,تهران,نارمک، ضلع جنوب غربی میدان هفت حوض، کوچه 8 متری اول، پلاک8,35.729312841390644,51.49313986301422
187,f821d2e5-8bd0-4327-8a4b-7416f3bfe3c7,فست فود پدر و پسر,4.64,11.0,15 تا 30 دقیقه,تهران,پیروزی، بلوار ابوذر، بین پل 4و5، نبش مبارز شرقی، روبروی مسجد جامع,35.658451291911135,51.48505568504334
188,e0a099d4-3093-4d22-9997-ff0cd1533678,فست فود آمادو شهرک گلستان,4.71,69.0,12 تا 22 دقیقه,تهران,صادقیه، بلوار اباذر، روبروی بیمارستان پیامبران، پلاک 58/1,35.73580696548327,51.32906913757325
189,8ad46adc-ca17-4263-a9ce-883227661df4,  شمرون کباب,4.74,257.0,30 تا 60 دقیقه,تهران,اوین، ابتدای خیابان دشت بهشت ، پلاک 21,35.793285668650505,51.38940274715424
190,11d4d7f3-bcf9-4a04-b542-b4ee746a9165,فست فود کاواک,4.49,67.0,20 تا 40 دقیقه,تهران,تهران پارس،فلکه اول، ضلع شرقی داخل مجتمع پارس پلاک6,35.726173002280504,51.52532637119294
191,ea41378e-b6a4-4cb1-b336-f373f097a545,کافه گذر,4.63,27.0,30 تا 45 دقیقه,تهران,ابتدای ایرانشهر، پلاک 239,35.71489621443388,51.41908809542657
192,31d7f307-042e-41e7-8c3b-16b27d811317,رستوران وک اند رول,4.28,25.0,20 تا 40 دقیقه,تهران,جردن، خیابان گلفام، مجتمع تجاری امیر، واحد 7,35.776643646869275,51.423273682594306
193,d6c68f83-ae52-448f-b0f9-7be48fa1e965,رستوران بارکو,3.26,39.0,30 تا 45 دقیقه,تهران,شهرک غرب،بلوار فرحزادی، نبش خیابان حافظی، مجتمع اریکه ایرانیان، طبقه اول,35.77187836802095,51.35839462258447
194,7b02b025-f4f2-42af-865f-2e54c42fa51a,رستوران تورینو,3.13,183.0,30 تا 45 دقیقه,تهران,تقاطع خیابان مطهری و شریعتی، پلاک 693,35.72326168165639,51.443551182746894
195,92fb0209-1fdc-4669-a440-a86190396e2d,رستوران عمارت شهرری,4.41,78.0,25 تا 45 دقیقه,تهران,شهرری، میدان مدرس، روبروی بازار بزرگ ری، خیابان دانش پور، پلاک 12,35.58651470315884,51.43148660659791
196,abdd34f2-1dd1-4394-aba5-58a66b177ed1,تهیه غذای رادبانو,4.33,6.0,20 تا 40 دقیقه,تهران,خیابان سمیه، نرسیده به مفتح، خیابان خاقانی، پلاک 65,35.70329329621937,51.42747938632966
197,eb040d36-c455-49cb-939a-527191a90ca7,رستوران خانه کوچک,0.0,0.0,30 تا 50 دقیقه,تهران,ولنجک، خیابان 13شرقی، پلاک 5، فود کورت مجتمع گالریا,35.80765982058928,51.40598416328431
198,3a395c75-e639-46d4-bd70-e53f93f8ec35,کترینگ ترنم,3.83,104.0,35 تا 60 دقیقه,تهران,ستارخان، میدان خبرنگار، کوچه مدبر، مرکز خرید آپادانا، پلاک 50222، کترینگ ترنم,35.71886486461573,51.35004686191679
199,390b48ad-674c-4fc2-815c-747b884ecb4f,  هیوا کباب,4.49,126.0,30 تا 60 دقیقه,تهران,یوسف آباد، بین خیابان پنجاه و پنجم و پنجاه هفتم,35.74585047761015,51.405061483383186
200,8ac176d1-7cd1-4424-9fd4-42f9ac673f57,فست فود ملچ ملوچ,0.0,0.0,25 تا 45 دقیقه,تهران,ابتدای اتوبان شهید لشگری، شهرک شهید فکوری، پلاک 31,35.70220424488714,51.32798552513123
201,a3d1e25f-2c3e-4309-ae85-1f73e5bc9f9b,رستوران واسابی,2.78,9.0,40 تا 60 دقیقه,تهران,شیخ بهایی جنوبی، خیابان 64 غربی، مجتمع آ اس پ، پلاک 26,35.745236582523404,51.400099396705635
202,117be217-c156-4ef3-a4a4-362ac461e6f8,  کافه رستوران سیتکا,4.48,27.0,30 تا 45 دقیقه,تهران,بالاتر از میدان ولیعصر، نبش کوچه فرخی، رستوران سیتکا,35.71386884445792,51.407583765685565
203,49bfa197-a599-4fc0-bc71-7a81e93f8ad0,فست فود شاوور,3.54,41.0,20 تا 40 دقیقه,تهران,جنت آباد شمالی، بالاتر از آبشناسان، جنب بهارستان یازدهم، جنب بستنی حجت,35.76819564744847,51.304183602333076
204,9f2af07d-7bb5-4769-83ce-eb5cdc61667f,رستوران محمدیه,3.76,42.0,30 تا 60 دقیقه,تهران,سید خندان، به سمت رسالت، خیابان شهید کابلی(خیابان دبستان)، میدان مهران، نبش کوچه رمضانی,35.73851390386582,51.45233809947968
205,016ae6a0-7fa1-49ed-831a-302decd7b7ec,سوخاری یامی کنتاکی,4.33,12.0,20 تا 40 دقیقه,تهران,خیابان دولت، چهارراه قنات، خیابان برادران رحمانی، پلاک 102.1,35.78406809229363,51.4541244506836
206,0690876e-9e54-45ce-80c1-b66c53fc92cd,فست فود تیمو,3.65,46.0,20 تا 40 دقیقه,تهران,خیابان شریعتی، بین خیابان میرداماد و ظفر، پلاک 1220,35.76227150210174,51.444758176803596
207,08f9eb0d-5019-40a7-87ca-baa0e65a6904,رستوران کلاسیک پردیس,3.33,30.0,25 تا 45 دقیقه,تهران,ستاری شمال، 35 متر گلستان (خیلبان شهید مخبری)، نرسیده به شاهین شمالی، پلاک 8.5,35.759538299999996,51.3117976
208,1c016426-70b0-4ece-a6f0-3b520d2a402b,غذای خانگی مهرگان,3.88,48.0,20 تا 40 دقیقه,تهران,تهرانپارس، میدان پروین، خیابان 196، پلاک 254,35.740995837162764,51.54953221135656
209,7eb02802-f4c8-4e4d-a385-41373be44495,رستوران آوا پلاس,0.0,0.0,20 تا 40 دقیقه,تهران,نیاوران، سه راه یاسر، به سمت میدان قدس، پلاک 250، واحد 1,35.8119142,51.4488002
210,cdf5ce0e-6597-4219-a625-2b670396fb35,تهیه غذای ریحان,3.5,12.0,20 تا 40 دقیقه,تهران,بلوار کشاورز، بعداز خیابان فلسطین، کوچه کبکانیان، پلاک 15,35.711255987480925,51.40361309051514
211,02302651-15b8-4d1f-b81e-ff92d827fb6e,کافه کباب کوچه باغ,0.0,0.0,20 تا 30 دقیقه,تهران,لواسان، کمربندی، همند شمالی، ابتدای یاسر، روبروی آشپزخانه دایی عباس,35.817526064145376,51.63839221000672
212,244b41d2-0e91-4dcb-9587-16808c4b39c7,فست فود سان پیتزا,0.0,0.0,30 تا 45 دقیقه,تهران,نیاوران، بعد از مجتمع نارون، خیابان ناطقیان، کوچه خاص، پلاک 5,35.81034401264161,51.467787623405464
213,c9174691-bc1a-4cdd-bfaf-310a80b79796,فست فود گلد فود,2.82,11.0,30 تا 45 دقیقه,تهران,گیشا، خیابان علیالی، پلاک 58,35.734119799772934,51.37628699652852
214,a2c960cb-2dbc-4279-a3b1-05634f63ca80,کافه رستوران جوجه تیغی,0.0,0.0,30 تا 45 دقیقه,تهران,نیاوران، خیابان نیاوران، ابتدای خیابان آقایی، پلاک 1،,35.81161396340376,51.46132364832739
215,3ca5e712-b133-49d9-9b43-8d3a68802b7c,فست فود مسعود (دوته),0.0,0.0,30 تا 45 دقیقه,تهران,پیروزی، سی متری نیروی هوایی، نرسیده به پل تهران نو، پلاک 456,35.711456351290124,51.48477673530579
216,a04ad31d-df75-4df1-9d0f-1048ba4ee343,فست فود آریو,3.82,73.0,30 تا 50 دقیقه,تهران,ونک، خیابان خدامی، مرکز خرید آفتاب، داخل حیاط پلاک 21,35.7665750030723,51.39917492844689
217,45dde129-b389-4c4b-8b9b-30819011da6e,کترینگ پریزاد,3.72,75.0,40 تا 65 دقیقه,تهران,خیابان میرداماد، خیابان شمس تبریزی شمالی، پلاک 18,35.76077987717725,51.43171906558565
218,a153e0ab-6021-4519-9858-ec843bea8d7c,  چیکن باکس,4.64,28.0,25 تا 50 دقیقه,تهران,تهران بلوار فردوس شرق بین خیابان رامین و گلستان پلاک 231,35.72312401260342,51.319602727453464
219,c00c5828-8737-498d-83de-d9fe81727c29,کترینگ مسچی,3.86,128.0,25 تا 50 دقیقه,تهران,سهروردی شمالی، خیابان شهید قندی غربی، بعد از چهار راه سیبویه,35.73936152683815,51.43807589964127
220,76396889-a00f-462f-9c6a-246008d4cedb,  سرای علا - Seray Ala,4.52,21.0,30 تا 60 دقیقه,تهران,چهار راه فرمانیه، مجتمع برند سنتر، طبقه دوم,35.799445478454054,51.47281957324594
221,1a3ec120-0f01-4735-89c4-da6e52083940,  جوان,4.43,53.0,,تهران,زعفرانیه، مقدس اردبیلی، نرسیده به پسیان، پلاک 19/5,35.80196050588277,51.41721725463867
222,49cd9cf5-f154-4e5f-9435-689a0159ff65,ساندویچ الف,4.67,12.0,30 تا 60 دقیقه,تهران,زعفرانیه، خیابان مقدس اردبیلی، جنب مسجد طالقانی، پلاک 45,35.79970677090966,51.41475498676301
223,88d4d5d0-5820-4b85-8cd6-8a851bbd4816,کافه بالون,0.0,0.0,40 تا 60 دقیقه,تهران,میدان شهید شهریاری، خیابان درکه، نبش کوچه سرو، پلاک24,35.79564872671248,51.39550924388459
224,da13eb0d-b749-4732-9f01-398aa5313aab,رستوران نسن,4.15,26.0,,تهران,اشرفی اصفهانی، خیابان پیامبر شرقی، پلاک23,35.736674937667054,51.327549218913205
225,ccfde409-4d21-4c2f-8b95-f26a3d5bbd8f,تهیه غذای میزبان,3.5,24.0,30 تا 50 دقیقه,تهران,پونک، سردار جنگل جنوبی، تقاطع نیایش، پلاک 6,35.768336382957635,51.33198738098145
226,5fbd42eb-b11b-4c45-b3af-b7e1d5445e83,فست فود بیگزا,0.0,0.0,35 تا 65 دقیقه,تهران,پونک، خیابان میرزابابایی، خیابان عدل شمالی، جنب مجتمع نگین عدل,35.76321463592509,51.33134722687829
227,9150ab87-8e15-49be-96a5-877ce0da3d04,  کبابخانه آوا,4.09,127.0,30 تا 50 دقیقه,تهران,پونک، ابتدای میرزا بابابی، پلاک 20,35.760182058311344,51.333467960357666
228,54ad1740-4f73-4e8e-8dff-ba27cdaa2181,چلوکباب زیتون,0.0,0.0,20 تا 30 دقیقه,تهران,پونک، اشرفی اصفهانی،بالاتر از میدان پونک،بلوار امام حسن، پلاک18,35.76313918572636,51.33773803710938
229,559338c0-8893-4c3a-8930-5f8e96c8336b,  مستر دیزی,4.38,13.0,40 تا 70 دقیقه,تهران,میدان رسالت، پشت مسجد رسول، کوچه کریمی، پلاک8,35.73601597632961,51.49343490600587
230,a613f2eb-7e9a-44a9-8620-7a8a9eb5ff37,رستوران ایران توچال,4.56,78.0,40 تا 60 دقیقه,تهران,سعادت آباد، کوی فراز، شهرک بوعلی، مجتمع تجاری بوعلی، پلاک20,35.78924941640676,51.366827487727285
231,89f39461-4f6f-47dc-90a5-184fa7ad9c1c,کافه رستوران لومیر,0.0,0.0,30 تا 45 دقیقه,تهران,مرزداران، خیابان ابراهیمی،داخل کوچه الوند13، راهروی شمالی برج الوند،پلاک5,35.734172597954,51.344887017985464
232,2a7f626b-5d32-4615-835e-d99c588bc180,فست فود آفتابگردان,4.37,19.0,,تهران,افسریه،35متری قصر فیروزه، نرسیده به چهار راه قائم، پلاک151,35.640815803723,51.49059534051049
233,a5f2d942-9550-44c7-9f72-ba298b4f6892,کافه تایم,0.0,0.0,,تهران,نیاوران، خیابان مژده(مقدسی)، احمدی زمانی شرقی، محمودی دوم، جنب برج پلاتینیوم،بن بست گهر,35.81271200103729,51.44054532094742
234,315a4552-301a-469c-a58f-b1d282deb629,تهیه غذای الیزه,3.72,36.0,,تهران,جمهوری، باغ سپه سالار، کوچه مهندس الممالک، مرکز خرید الیزه، ط 3، چلوکبابی الیزه,35.69401119804866,51.42607212110306
235,f8629122-f63f-4dfa-ac80-e8ce34cb185a,کافه بستنی لالالند,0.0,0.0,30 تا 40 دقیقه,تهران,شهرک غرب، خیابان دادمان، خیابان درختی، مرکز خریدسپهر، پلاک 8,35.765486816552226,51.355565785925144
236,e6351035-ef6d-46d5-b2e7-349785965d59,غذای خانگی پویا,2.2,5.0,40 تا 60 دقیقه,تهران,خیابان میرداماد، خیابان حصاری، پلاک 20، غذای خانگی پویا,35.75779654289608,51.440062522015076
237,8003514c-0311-43b7-bc0e-9a637a4f280b,فست فود گریل لند,0.0,0.0,25 تا 45 دقیقه,تهران,ستاری‌شمال - نرسیده به میدان دانشگاه علوم تحقیقات - بلوار زیتون نبش بلوار صبا پلاک 2/1,35.77500141337928,51.32491707801819
238,42325709-4e0f-4a2a-84f4-5ace83be323d,فست فود الیستا,4.65,214.0,40 تا 60 دقیقه,تهران,دروازه شمیران، خیابان خورشید، پلاک 222,35.698088948524855,51.4384210107528
239,0d9fea19-659b-461a-b81e-5ab5434898e7,کترینگ ایلیات,4.32,88.0,,تهران,هروی انتهای وفا منش، خیابان احمد آبادی، نبش گلزار ،مجتمع یاس، کترینگ ایلیات,35.77709046762643,51.481196880777134
240,c2435668-9c04-41f3-bc49-c538a9f0adfa,کترینگ بهنام,0.0,0.0,30 تا 50 دقیقه,تهران,خیابان حافظ ، خیابان سرهنگ سخایی ، کوچه هنرستان ، پلاک 5,35.69021498467902,51.41835808797624
241,7cefe50f-1bf7-4adf-86c3-e180a87889c4,کترینگ آترا,3.26,23.0,40 تا 60 دقیقه,تهران,سعادت آباد، میدان بوعلی، مجتمع تجاری بوعلی، پلاک 14,35.78918559467273,51.36673450557282
242,d60f3ef2-57e0-4215-a18b-89de16115ab5,  کترینگ بانوی نمونه,4.4,10.0,20 تا 40 دقیقه,تهران,تهران، مرزداران غربی، خیابان ابراهیمی، برج تجاری الوند، طبقه همکف، پلاک44 ممیز 1,35.73370231189201,51.345655918121345
243,23ac08c8-fc58-44e9-bf19-c84dc3760922,رستوران حقیقت,4.27,11.0,25 تا 50 دقیقه,تهران,تجریش، رو به روی بیمارستان شهدا، پشت پاسگاه انتظامی، کوچه حدادی، کوچه خواجه نوری، رستوران حقیقت,35.80473915425341,51.431468724986196
244,3f270b0e-e34a-40a8-add8-e6480827aad5,کباب ساطوری بناب دنیز,4.23,73.0,25 تا 45 دقیقه,تهران,ستارخان، خیابان خسرو شمالی، جنب مجتمع نان مادر,35.722191049406995,51.347630023956306
245,a37a6638-39ae-4942-8b31-3701279d735f,فست فود برگرمون,0.0,0.0,40 تا 60 دقیقه,تهران,بلوار ارتش،سوهانک، مجتمع تجاری پلاتینیوم، طبقه فودکورت، فست فود برگرمون,35.799094741927576,51.53001308353851
246,6efb19a7-1315-451e-ac24-7d5874d98123,پیتزا پارک,3.79,78.0,40 تا 60 دقیقه,تهران,نبرد شمالی، بلوار پاسدار گمنام، جنب پارک سهند، پلاک 81,35.67144619977508,51.48300647735596
247,6332dad0-3cf8-4c6d-b942-7e0d30839a28,فست فود جیلیز ویلیز,4.23,44.0,50 تا 80 دقیقه,تهران,خیابان پنجم نیروی هوایی فلکه دوم ضلع شمال غربی پلاک 21.1,35.699122874887806,51.48642540065339
248,6fd3d4b5-1e4b-4ebb-836e-3b17bbfda6d4,فست فود جیلیز ویلیز,4.46,63.0,50 تا 80 دقیقه,تهران,لواسان کوچک، بلوار امام خمینی، نرسیده به میدان بسیج، مجتمع قصر سران، جیلیز ویلیز (لواسان),35.828061669668436,51.65882948756917
249,13c6a545-0fd7-4fb1-b0c9-4a25c2174f68,فست فود جیلیز ویلیز,4.24,34.0,50 تا 80 دقیقه,تهران,فلکه اول تهرانپارس، گلبرگ، نبش کیخسروی، پلاک 30,35.72679575413482,51.52229547500611
250,1b0f7dde-2f54-4888-8c4d-15c72c1b9192,فست فود جیلیز ویلیز,4.44,104.0,60 تا 80 دقیقه,تهران,خیابان پیروزی، صد دستگاه، نبش کوچه ایلخان، پلاک552,35.691246108749105,51.472234725952156
251,4c2c56a1-69a6-4ce6-92c2-a885c84b9747,فست فود کوکورچ,3.84,57.0,40 تا 60 دقیقه,تهران,خیابان مدنی، مرکز خرید تیراژه 2، طبقه 3، فودکورت، پلاک 312، فست فود کوکورچ (فودکورت تیراژه 2),35.70882835098542,51.45244002342225
252,83291e83-727b-4eb8-8a3d-6bc5dfd7d19d,کافه آلپا,0.0,0.0,,تهران,نیاوران، خیابان باهنر، بعد از چهار راه مژده، پلاک 406,35.80778598399798,51.441013813018806
253,317c590f-9ace-44ed-89f9-ca3cdde7d753,غذای‌ایرانی سوفیا,0.0,0.0,40 تا 60 دقیقه,تهران,چیتگر، بلوار کوهک، مجتمع تجاری طوبی، فودکورت مجموعه کودک پالامد,35.730340556570695,51.24806642532349
254,763e136f-4727-40f3-97ee-d68663ae4721,کافه رستوران ونتی,0.0,0.0,25 تا 50 دقیقه,تهران,خیابان ستارخان، خیابان تاکستان، پلاک 20,35.71870976291329,51.36501431508805
255,fa6fc6d1-49a1-46ae-8682-b56eb15f49ac,رستوران پارسیان,3.29,7.0,25 تا 50 دقیقه,تهران,بلوار کشاورز، تقاطع جمالزاده، پلاک 352,35.70772775962189,51.38549208641053
256,c270dd01-ebe8-44b3-a554-670ebf421634,فست فود مکسان فود,3.17,23.0,15 تا 25 دقیقه,تهران,شهرک غرب ،بلوار دادمان غربی ،بعد از فلامک ،پلاک 81/2,35.76516180888092,51.356411576271064
257,7f60a983-389c-44a8-b044-b5f713a69024,رستوران اکبر جوجه (برادران کلبادی),2.9,40.0,50 تا 70 دقیقه,تهران,جاده قدیم کرج، شماره2 خلیج، شهرک سینا، 12متری سعدی، نبش کوچه طالقانی ب، پلاک74، اکبر جوجه برادران کلبادی (تهرانسرو خلیج),35.6718921581441,51.26745879650117
258,9f65bbd2-65f8-437d-8f8b-7a153a9def04,  فودینو,0.0,0.0,40 تا 60 دقیقه,تهران,نیاوران، 4 راه مژده، جنب بانک پارسیان، ساختمان سروستان طبقه 6 واحد 20,35.808057887214595,51.44132763147355
259,05cb653f-80e6-40a5-8246-0ad5091c0360,رستوران شیکاگو گریل,4.33,18.0,25 تا 45 دقیقه,تهران,میدان تجریش، بازار قائم، طبقه ششم، فودهال اسکوئر، پلاک 3169,35.80543171634685,51.430633812778986
260,d4613964-a037-4467-9be0-3f14aafad75d,رستوران شیکاگو گریل,4.38,29.0,25 تا 45 دقیقه,تهران,میدان هروی، گلستان پنجم، پلاک 109، مجتمع مایسا,35.76677232583001,51.478012204170234
261,d4b5be3e-8496-4f3b-9e1f-1948f16e8855,رستوران شیکاگو گریل,4.33,33.0,25 تا 45 دقیقه,تهران,خیابان شریعتی، بالاتر از پل صدر، تقاطع میرزاپور و قلندری، انتهای پاساژ سهیل، پلاک 7,35.78768963933204,51.441498994900044
262,a4fdbc21-9dc3-4e64-9b0e-f82aa1bc37f7,رستوران زیتون,3.87,23.0,25 تا 45 دقیقه,تهران,جنت آباد شمالی، بالای ایرانپارس، نبش بهارستان21، پلاک330,35.77195477689855,51.30404949188233
263,cc1b3372-241c-4348-ac28-bcdc1a708261,  جگر سرای لیمو,0.0,0.0,25 تا 50 دقیقه,تهران,تهرانپارس، وفادار شرقی، سه راه استخر، ضلع جنوب غربی، پلاک 822,35.749504724561085,51.5466070175171
264,853f8793-cd90-4771-bda6-2089c4660d75,تهیه غذای پلو قالبی,4.03,33.0,25 تا 50 دقیقه,تهران,اتوبان نیایش، نرسیده به خروجی کردستان، شهرک فجر، بازارچه دوم، طبقه اول بازارچه، تهیه غذای پلو قالبی,35.77613589267114,51.40275120756997
265,81405a30-997e-4e36-8dad-054f35ce8aaf,  مرغ سوخاری چیک چیک,4.0,4.0,20 تا 40 دقیقه,تهران,بلوار آجودانیه(سباری)، مجتمع تجاری عرش، طبقه دوم(فودکورت)، واحد168,35.81595717549433,51.48502349853516
266,f815dc21-db49-4019-bbb4-1005aafee824,  هورسان بیسترو,4.56,9.0,30 تا 60 دقیقه,تهران,جردن، بالاتر اسفندیار، نبش عاطفی غربی، پلاک 148,35.77196928514376,51.42061829501472
267,1fc50d31-97b1-4e33-a922-4d0831a5b935,تهیه غذای صد وده (110),3.86,7.0,30 تا 45 دقیقه,تهران,دلاوران، سراج، سروش سوم، پلاک 12,35.75150447527971,51.51911616412691
268,35ee2dd9-4841-4927-a7fe-ca484dc03865,کافه رستوران لیان,4.0,4.0,30 تا 50 دقیقه,تهران,ولنجک، بوستان سوم،  نبش گلستان سوم، پلاک11,35.80891854556987,51.395663022995
269,6888b8c2-16c9-40be-b656-7c58be1d0ea2,رستوران کباب و چلو کباب عمو حسین,3.0,5.0,25 تا 50 دقیقه,تهران,سعادت آباد، میدان سرو، خیابان 18 متری مطهری، 10 متری اول، بین گلستان 2 و 3، پاساژ امیر، کباب و چلو کباب عمو حسین,35.774966595604724,51.357246637780925
270,02f38372-9350-4fb7-8da9-9bd09d10dcf0,ساندویچ کلکچال,0.0,0.0,25 تا 50 دقیقه,تهران,ضلع شمالی میدان نیاوران، نبش خیابان احمد جبلی، پلاک 5,35.813645835953935,51.47090435028077
271,95dc3cfa-e39c-48d0-8c97-a8784bd70175,فست فود جیلیز ویلیز,4.33,131.0,50 تا 80 دقیقه,تهران,خیابان شریعتی، بعد از پل صدر، نرسیده به پل رومی، پلاک 1786,35.79311633238172,51.434583664813545
272,63a3e02a-cde8-49dd-897b-53d74a817bce,فست فود ورنا,4.54,13.0,25 تا 50 دقیقه,تهران,سه راه جمهوری، تقاطع ولیعصر ضلع شرقی، جنب فروشگاه رفاه، پلاک 761,35.69561734538225,51.40406012556924
273,6789f7fe-3fe6-4a27-9dd6-ba929cc54649,کافه رستوران عدن,0.0,0.0,30 تا 60 دقیقه,تهران,میرداماد، خیابان حصاری، پاساژ راز، طبقه همکف,35.75792713865629,51.44041836261749
274,294a4374-97a6-4d88-a9dc-619887add938,کترینگ پلو شاهی,0.0,0.0,25 تا 50 دقیقه,تهران,خیابان باهنر، نرسیده به میدان باهنر، پلاک36، طبقه زیر همکف,35.811066162276404,51.46807730197907
275,316aa036-0876-4788-afdc-36d40e650a08,تهیه غذای سبحان,3.76,29.0,25 تا 50 دقیقه,تهران,محله شارق، خیابان مدنی جنوبی، خیابان شهید محمودی، کوچه احمد سبزیکاری، پلاک4,35.71211551554121,51.46105885549333
276,7f3e2cdd-d794-4e44-b09a-e01413bca4a6,تهیه غذای زرشک پلو,0.0,0.0,40 تا 60 دقیقه,تهران,اتوبان محلاتی، خیابان میثم، جنب مسجد میثم پلاک24,35.66756029755081,51.47247254804825
277,d77e741e-001b-4ccb-8ef8-2da4c93d2aa6,فست فود 222,2.71,7.0,30 تا 60 دقیقه,تهران,پاسداران میدان هروی گلستان پنجم ( موسوی) مجتمع تجاری گلستان طبقه دوم,35.76672879877364,51.4779603490024
278,9721aa94-81ab-49be-889e-777e93271a7d,کترینگ رادمز,4.18,66.0,25 تا 40 دقیقه,تهران,خیابان ولیعصر، پایین تر از مطهری، کوچه حسینی راد، پلاک 31,35.72303884637778,51.410658357781365
279,a52d63d0-1bf2-4943-be1a-a6536c15b861,رستوران لبنانی الریعان,3.0,4.0,30 تا 60 دقیقه,تهران,نیاوران، بعد از سه راه یاسر، ابتدای خیابان تبریزی، پلاک 2,35.81268009946744,51.45011186599732
280,2fcb4519-c481-4e11-9e43-2c3d63ef55f3,فست فود وانیشا,0.0,0.0,20 تا 40 دقیقه,تهران,خیابان میرزای شیرازی، بالاتر از مطهری، کوچه نعیمی، پلاک 31,35.72420890684969,51.41411930322648
281,d763e1bf-824c-409d-8f72-42389de0f7ee,رستوران هلوو شف,3.8,5.0,25 تا 50 دقیقه,تهران,تهرانپارس، انتهای خیابان جشنواره، خیابان زهدی ، خیابان امیر شرقی، پلاک 225,35.73266883435281,51.54635310085724
282,8404c943-8bf9-47b4-b9b0-7bbbb9db0a72,کترینگ آرشه,0.0,0.0,30 تا 45 دقیقه,تهران,سهروردی شمالی، خیابان آپادانا، رو به روی خیابان نیلوفر، پلاک 188,35.73542668054155,51.43275260925293
283,101b0626-9800-452a-a392-7cae77c3aa62,فست فود حامی فود,3.44,9.0,50 تا 80 دقیقه,تهران,شهر ری، دولت آباد، فلکه سوم، ضلع غربی میدان، پلاک 38,35.6247912631104,51.44873857760104
284,de7d3e30-f8f4-4217-a7d8-eebc16cab115,آشپزخانه دیبا,4.07,43.0,60 تا 80 دقیقه,تهران,خیابان مطهری، نرسیده به شریعتی، جنب اتو استاد، پلاک 13,35.72353822689982,51.44243001937867
285,51430b55-8f16-41a5-8696-e189f69d5ec4,رستوران فرش کیت,0.0,0.0,35 تا 55 دقیقه,تهران,تهرانپارس، واثقی (212 شرقی)، بعد از طالقانی، پلاک 78/1,35.74442675623091,51.55974447727204
286,ebb36203-218f-4c01-8996-7ba2ca821115,کترینگ اسپاد,4.0,162.0,25 تا 45 دقیقه,تهران,تقاطع بهشتی ولیعصر جنوب، خیابان عبادی، کوچه دل آرا، پلاک 29,35.726631235622364,51.41395092126914
287,0ce6c296-2eb9-4be4-b5ef-40ca7c74ab3f,فست فود مستر شف,0.0,0.0,25 تا 50 دقیقه,تهران,شهرک غرب فاز 6، مجتمع ایرانیان، واحد8,35.75889296034323,51.34631395318139
288,08f312f4-2e54-4e1a-98df-9969ecde0a17,رستوران کافه طباخی فانوس,0.0,0.0,40 تا 60 دقیقه,تهران,تهرانپارس شرقی، مترو فرهنگسرا، خیابان زُهدی،  پلاک 171,35.73479964171646,51.5512901544571
289,2e4a00d0-f13b-4e23-bef7-9fbde90997f6,رستوران مهربانو,3.71,14.0,,تهران,خیابان انقلاب، نبش خیابان استاد نجات الهی، پلاک661,35.70155516321798,51.41588151454926
290,3056bca0-3eb2-46f9-bda8-c703ce2226f5,رستوران چیت دی,4.62,21.0,30 تا 50 دقیقه,تهران,خیابان سهروردی شمالی، خیابان خرمشهر، خیابان عشقیار،  (نیلوفر)، پلاک 116,35.73963177750054,51.43240356061143
291,26bb6e50-66bc-458e-b051-810055decc76,فست فود اسفناج,2.33,6.0,25 تا 45 دقیقه,تهران,بلوار میرداماد، بازار بزرگ میرداماد، طبقه همکف، واحد 25,35.76171432245669,51.414052248001106
292,8f76be47-3515-4524-9b0f-07271d24ff00,مرغ سوخاری اورنجیک,4.21,28.0,30 تا 60 دقیقه,تهران,بلوار فردوس شرق، بین رامین و گلستان شمالی، پلاک 251,35.72323337360373,51.319450736045845
293,817af4fa-8446-4903-85d3-deb4449c1669,  دوستین,0.0,0.0,,تهران,قیطریه، بین کوچه انصاری و محمودیان، پلاک 31,35.79284945406711,51.452713608086924
294,c82a027d-bd11-4e71-9337-a625258ff70d,کبابسرای حاج محمد و پسران,1.8,5.0,30 تا 60 دقیقه,تهران,انتهای اتوبان نیایش، نرسیده به ولیعصر، شهرک فجر، بازارچه دوم، طبقه اول,35.77591247992426,51.40312492847443
295,67ba313f-b880-49ba-a7f1-c065247141e3,تهیه غذای طیبات,4.88,32.0,,تهران,تهران، خیابان شریعتی، بالاتر از متروی قیطریه، خیابان شهید موسیوند، پلاک 7,35.79732679217714,51.43848717212678
296,c9aef92c-4bc9-494f-bf95-be35636627f8,کترینگ رویای سبز,3.85,68.0,25 تا 45 دقیقه,تهران,بلوار فردوس شرق، خیابان ابراهیمی شمالی، کوچه علی رضا صافی، پلاک 5,35.72895284780377,51.311845778982395
297,326a07fe-3681-4d17-89fe-f3dc85a5f735,فست فود دلفین,4.79,28.0,45 تا 55 دقیقه,تهران,نبرد جنوبی، خیابان ده حقی، روبروی درب دانشگاه آزاد، پلاک 408، جنب استخر، فست فود دلفین,35.658246436568334,51.47209525108338
298,b3a34fb0-0165-41cf-8e77-ac81f7ec77f4,کترینگ کترا,3.8,75.0,15 تا 30 دقیقه,تهران,پاسداران، خیابان دولت، بعد از چهار راه اختیاریه، جنب مرکز جراحی افرا، کترینگ کترا، پلاک 77,35.78083545649062,51.46392945171102
299,dc6381c8-3bdd-44fc-9240-fd425abb03f1,رستوران مرغ ذغالی لبنانی طاووق,3.0,5.0,15 تا 30 دقیقه,تهران,خیابان، کارگر شمالی، نرسیده به تقاطع فاطمی، روبروی بازارچه خود اشتغالی، پلاک 1242,35.713103767987164,51.3895297041745
300,f0451c3a-617b-4b0b-bcb1-e69b65494188,رستوران ناب بناب,4.58,24.0,30 تا 45 دقیقه,تهران,خیابان آیت الله کاشانی، روبروی شهرداری، منطقه 5، پلاک 412,35.729652511434224,51.314177513122566
301,8354eaa0-7d07-4cb6-8eb2-2406927cf0e3,کترینگ نارنجستان,3.9,40.0,35 تا 60 دقیقه,تهران,جردن، بلوار گلشهر، برج آی تک، پلاک 13، واحد 37,35.77629547297209,51.422646045684814
302,6ccecf8c-514f-41a6-aa3d-0e3db4742c36,کافه رستوران گل یاس,0.0,0.0,25 تا 40 دقیقه,تهران,آیت الله کاشانی، سازمان برنامه، نبش میدان سازمان برنامه، کافه رستوران گل یاس,35.73635852078559,51.302751302719116
303,9b897df3-a09d-4a7d-847c-eaf5dda0bc3f,فست فود کلیز برگر,4.48,23.0,30 تا 50 دقیقه,تهران,میدان توحید، ستارخان، نرسیده به باقرخان، پلاک 165,35.70981501102365,51.37321714282735
304,1320f5e0-ca84-4ca3-8df6-c64c45ece25c,چلوکباب برکت گلپایگان,4.41,17.0,30 تا 50 دقیقه,تهران,اشرفی اصفهانی، چهار دیواری، خیابان فکوری، خیابان چمران، نبش کوچه دوم,35.776754868971715,51.33090615214315
305,24525a5b-1d81-4e1a-9527-b9a07d8e979f,رستوران ادیب نو,0.0,0.0,40 تا 60 دقیقه,تهران,میدان دریاچه، بلوار جوزانی غربی، خیابان منطقه، مجتمع تجاری خلیج فارس، واحد  88,35.75430810552689,51.20097398583312
306,e8d44b20-cfd9-4878-b13f-80a8cdfc4820,کترینگ نان و نمک,4.6,5.0,20 تا 40 دقیقه,تهران,شاهد شرقی، خیابان طالبی، نبش کوچه 13، پلاک 67، جنب نانوایی سنگک، نان و نمک,35.6974863027138,51.26234114170075
307,11294b8c-1d83-4b47-868a-38c6e17ae4bf,کباب ساطوری بناب آتیش,4.17,12.0,45 تا 60 دقیقه,تهران,پونک، میرزا بابایی، نبش کوچه پاک، روبه روی تره بار سردار جنگل,35.76210608980191,51.32708966732026
308,abfa28c5-8111-47c9-bd50-849ed2739ca3,رستوران خانه پیتزا,3.92,26.0,25 تا 45 دقیقه,تهران,بلوار فردوس شرق، خیابان مالکی، نبش رز شرقی، پلاک 25,35.721264850503324,51.32075965404511
309,f865b321-76dd-4c9f-90d1-c4baa8b40976,فست فود چیزی لاو,4.0,34.0,30 تا 45 دقیقه,تهران,پونک، بلوار همیلا، خیابان اورک، بین کوچه 8 و 10، پلاک 7,35.76078277875597,51.34049534797669
310,f95c5d11-dcc7-4ea8-b6ef-ed9fa3edf9c6,مجموعه غذایی پردیس,3.67,24.0,20 تا 40 دقیقه,تهران,پونک، چهار دیواری، خیابان اقبالپور، بالاتر از کوچه 7 مرکزی، جنب مسجد بابالحوائج,35.781892183633666,51.333189010620124
311,9869effa-9a65-4fa2-a18c-16c36a4d1840,کترینگ زعفرون اصیل,4.07,58.0,40 تا 60 دقیقه,تهران,یوسف آباد، خیابان بی ستون، خیابان شهیدان، برادران سپهری(چهاردهم)، پلاک 34,35.725853156525126,51.40411019368912
312,398c5ac4-c3a5-43b7-8728-e4bbcd02d219,کافه رستوران مایلند,0.0,0.0,15 تا 30 دقیقه,تهران,خیابان انقلاب، خیابان ابوریحان، تقاطع نظری، پلاک 91,35.699207099352115,51.40035689008074
313,fcc6a8b3-bcba-4e1d-915f-57d3b9441118,رستوران ترکی ایرانی مانتار,0.0,0.0,20 تا 40 دقیقه,تهران,فلکه سوم تهرانپارس، خیابان 196 غربی، به سمت اتوبان باقری، رو به روی سازمان تامین اجتماعی، بین خیابان عادل و طاهری، رستوران مانتار,35.74390921788973,51.529450892921886
314,e81cb3c4-5b79-4949-b15b-c855adbf936d,  TASTING KITCHEN,4.28,50.0,60 تا 120 دقیقه,تهران,پاسداران، خیابان پایدارفرد، نبش بوستان‌دهم,35.76826964206548,51.46196722984315
315,6e1d53d6-f79d-4f51-bad0-685cc412086d,رستوران ایتالیایی دانته,2.83,12.0,25 تا 45 دقیقه,تهران,یوسف آباد، نبش دوازدهم، پلاک 122، طبقه 5,35.72542589096325,51.40773845370859
316,d546c63e-8f31-468f-a02a-4be5e718c0ba,چلوکباب خلیلی,3.8,15.0,15 تا 30 دقیقه,تهران,فلکه دوم صادقیه، بلوار فردوس غرب (بلوار ناصر حجازی)، خیابان پروانه جنوبی، پلاک 15,35.72355623010075,51.30541133832594
317,6202ff72-e4f6-4ee4-8a10-94f84fb75196,رستوران هان جان,3.86,28.0,15 تا 30 دقیقه,تهران,ملاصدرا، شیخ بهایی جنوبی، بلوار علیخانی، برج البرز، شماره 105,35.749615597186335,51.39917206812243
318,fd9203d5-fcd2-4f53-964d-0caee34e2dd2,کترینگ فامیلی,4.52,21.0,20 تا 35 دقیقه,تهران,میدان سبلان، خیابان گلشن دوست، جنب خروجی امام علی، دسترسی محلی، کوچه سجاد,35.72342402932435,51.46943330793875
319,d2dbb39c-d7d6-4b7a-a8b0-0d256b792fa9,رستوران ایتالیایی ژوانی,0.0,0.0,40 تا 70 دقیقه,تهران,بلوار مرزداران، بین آریافر و سپهر، پلاک 153,35.73423181912438,51.354045867265086
320,2d851ff8-3703-4cd5-a03e-6c04d1371997,رستوران و فست فود وانوش,3.6,10.0,30 تا 60 دقیقه,تهران,میدان دانشگاه، خیابان صارک، کوچه مسجد، پلاک 22,35.78267986944645,51.31248772144318
321,795279d7-1616-4451-bdbc-508a04429c34,فست فود هات باکس,4.39,23.0,25 تا 45 دقیقه,تهران,نیایش به سمت شرق، نرسیده به کردستان جنوب، شهرک فجر، بازارچه دوم، پلاک 1,35.776036082533906,51.4031732082367
322,b372ea6d-3c18-4714-9002-ec65638be34f,رستوران نقش جهان,4.54,13.0,20 تا 35 دقیقه,تهران,خیابان پیروزی ،خیابان پرستار، پایین تر از چهار راه نساجی، پلاک 410,35.68709490639931,51.48241758317455
323,aa345661-f9c4-4e54-a166-e7ee048e0288,رستوران طریقت اقدسیه,4.28,61.0,40 تا 70 دقیقه,تهران,اقدسیه، خیابان موحد دانش، پاساژ پلاتین صاحبقرانیه، پلاک 110، واحد 110,35.80538884496154,51.474509239196784
324,fe1223a5-11ea-4107-ab7c-db0d4ed8599f,رستوران بمب و مین,4.02,43.0,25 تا 45 دقیقه,تهران,بالاتر از میدان ولیعصر، جنب سینما آفریقا، نبش کوچه امینی,35.71633897449884,51.40769004821778
325,4e702412-2e0f-4de3-9fb9-5ab87d22c6ee,کترینگ خوراکچی,3.53,15.0,35 تا 65 دقیقه,تهران,ستارخان ، خیابان خسرو شمالی ، مجتمع بهاران ، طبقه 1-,35.72237106194896,51.34754419326783
326,ff9baf84-f808-4239-8c76-109ec5a5abff,تهیه غذای جمکران,4.33,36.0,30 تا 60 دقیقه,تهران,یوسف آباد، خیابان جهان آرا، نبش 43/1، پلاک 122، طبقه بالای درمانگاه,35.73768223771144,51.4037311077118
327,f731b7cb-8e6d-4e43-ae4a-6790a4967daa,  گالریا برگر,3.8,5.0,20 تا 40 دقیقه,تهران,خیابان ولنجک، خیابان 13 شرقی، پلاک 5، مرکز خرید گالریا، طبقه 5، واحد 508,35.80787734358261,51.40627384185792
328,94cba986-6fec-46f9-b830-3e78e0e3abd5,رستوران گرین بار (پیشخوان سبز),0.0,0.0,30 تا 50 دقیقه,تهران,فودکورت مجموعه گالریا، واحد 504,35.80765982058928,51.406402587890625
329,8e5b6d61-29d4-4901-8b54-308bc1ab3d1c,رستوران کبابیکا,0.0,0.0,25 تا 45 دقیقه,تهران,فودکورت گالریا، پلاک 5، واحد 502,35.80775553077976,51.4067029953003
330,7a51177c-c4a6-40d8-9c66-ca60640281a3,سوخاری البیک,2.33,9.0,40 تا 60 دقیقه,تهران,فود کورت گالریا، طبقه 5، واحد 506,35.80771202616202,51.40669226646424
331,b91e4cbc-b142-4999-bbbd-c4940e1033cf,رستوران دیگ و دیزی,0.0,0.0,30 تا 50 دقیقه,تهران,شریعتی، تقاطع پل صدر، خیابان ستار کشانی، جنب کوچه غلامرضا کشانی، پلاک 63,35.783680784909485,51.437006592750556
332,b8dfc6dc-b578-45be-b3cb-c979320cdc1a,بوفه و بار پلن بی,0.0,0.0,15 تا 25 دقیقه,تهران,تهران، هفت تیر، خیابان کریمخان، خیابان حسینی، پلاک 21,35.7161516893846,51.420307159423835
333,dbbceecd-1c20-482a-abce-a6b0175f3446,رستوران رجینا,0.0,0.0,25 تا 45 دقیقه,تهران,فودکورت مرکز خرید گالریا، واحد 505,35.80752930650732,51.40696048736573
334,53723ab9-153c-4bdb-8c1f-fa3d8097599e,کباب ذغالی حاتم,4.17,113.0,20 تا 35 دقیقه,تهران,نواب صفوی، بین کلهر و خیابان آزادی، جنب بانک رفاه، پلاک 659، سوپر کبابی حاتم,35.69993025774736,51.3782823085785
335,e5843806-e017-47dd-885b-dad4ed1a8cdf,رستوران ته دیگ زعفرانی,2.87,15.0,20 تا 40 دقیقه,تهران,تهرانسر، خیابان اصلی، خیابان 26، جنب بانک تجارت,35.69349129870938,51.25858068466187
336,fadcf5d2-9ef6-4006-9443-5b542bc7fd62,کترینگ پردیسان,4.39,62.0,30 تا 40 دقیقه,تهران,اشرفی اصفهانی، روبه رو تیراژه، خیابان قموشی، شهرک هما جنوبی، کوچه سوده، جنب دانشگاه آیین زندگی,35.74688668694535,51.336139440536506
337,f603054c-49e9-4ca2-b217-5e2880cff1b6,رستوران باکس کلاسیک,4.27,22.0,30 تا 50 دقیقه,تهران,تهران، شهرک غرب، بلوار دادمان، نرسیده به یادگار، پلاک 171، کافه رستوران باکس کلاسیک,35.76423901150201,51.350172758102424
338,1b8ec94c-b25e-4034-9070-fa0ddcb8615b,کترینگ حامد,3.69,26.0,25 تا 45 دقیقه,تهران,خیابان آزادی، خیابان استاد معین، پایین تر از چهار راه هاشمی، پلاک42,35.68813236404544,51.34635329246522
339,f76f9ce1-281a-4b60-bc2c-873c80124fb4,رستوران گلپر,0.0,0.0,25 تا 45 دقیقه,تهران,میدان تجریش، پاساژ قائم، طبقه 6,35.80578039711624,51.43075704574586
340,f7f9f0db-b0d6-4430-8ed8-8f3e29f5c80e,رستوران ایتالیایی ژمیس,3.8,5.0,25 تا 45 دقیقه,تهران,بلوار فردوس شرق، بین قبادی و ولیعصر، پلاک 88,35.722763022949074,51.327652931213386
341,d486d8e7-5e6f-4e6d-9107-755c339abf15, کلاسیک برگر جوینت,4.6,5.0,25 تا 50 دقیقه,تهران,اوین، خیابان کچویی، پلاک 91، کلاسیک برگر جوینت,35.79464216021731,51.394568681716926
342,ae573724-ddb9-40df-8fed-3703877d3013,کافه پاییز,0.0,0.0,25 تا 45 دقیقه,تهران,شهران، بین فلکه اول و دوم، پلاک 66,35.76347033805031,51.289682425267536
343,4d79ddc0-c1d2-49e2-87ab-c250fe363aad,فست فود دیان فود,0.0,0.0,30 تا 50 دقیقه,تهران,میدان توحید، ستارخان، بین کوچه کاج و شادی، پلاک 93,35.7084247058978,51.374902725219734
344,284b3b62-319e-4f70-97a1-d626bf2b6173,رستوران خوش پخت,4.23,13.0,25 تا 50 دقیقه,تهران,سعادت آباد ،‌بین چهار راه سرو و میدان کتاب ، سرو غربی ، پلاک 93,35.77849329513358,51.36101424694062
345,a8e46265-d0fc-4bea-b9ac-800d36d8223d,رستوران گلپر,4.71,7.0,20 تا 40 دقیقه,تهران,نیایش شرق، نرسیده به اتوبان کردستان، شهرک فجر، بازارچه دوم، پلاک6,35.77569486941611,51.40314102172852
346,681d49c9-c38d-4fe8-bda6-c9fe545da025,کترینگ آقا جون,0.0,0.0,25 تا 45 دقیقه,تهران,میدان هفت حوض گلبرگ شرقی خیابان رودباری شمالی نبش کوچه فرشید پلاک 355,35.72999653474544,51.50112211704255
347,10d58b70-fef8-476d-8e92-8dc997c849fa,کترینگ بهشت,3.98,41.0,25 تا 45 دقیقه,تهران,پاسداران ، خیابان دولت  ، بین دیباجی و اختیاریه ، پلاک 131,35.780290676810424,51.46105527877808
348,870ed581-9458-41b5-82fb-22fb8c66b786,رستوران مارسیا,0.0,0.0,20 تا 40 دقیقه,تهران,کامرانیه، خیابان پاشا ظهری، خیابان معصومی، بن بست کرمی، پلاک 51,35.79759220467206,51.459510326385505
349,4934a034-6458-4e6a-8de6-6445314d8186,پیتزا پارک,3.82,17.0,25 تا 50 دقیقه,تهران,نبرد جنوبی ، بلوار زم زم ، تقاطع گلشناس ، پلاک یک,35.66343740253397,51.471242308616645
350,82aaf6cc-52c7-47fd-917e-3c537fe2bd1d,فست فود دژ,3.33,6.0,25 تا 45 دقیقه,تهران,خیابان مدنی ، مرکز خرید تیراژه 2 ، طبقه 3 ، فودکورت ، پلاک 313,35.70870783858179,51.45247757434845
351,7a943138-fa9d-49d6-827c-c882f07183f8,سفره خانه سنتی گلخونه,0.0,0.0,25 تا 45 دقیقه,تهران,ارتش شرق ، نبش خیابان هاشم ازگلی ، پلاک 22,35.79831882122833,51.50281727313996
352,dd9a5849-fb3c-4df6-899d-90b1042f6f85,کترینگ نیکو منش,0.0,0.0,25 تا 45 دقیقه,تهران,خیابان انبار نفت، خیابان زربافیان، نرسیده به کارگر جنوبی، نبش حسن بیگی، پلاک 31,35.66366839486784,51.39499783515931
353,7ab73932-322b-4f72-92ab-2b64cdae9762,مجموعه غذایی اصیل تبریز,3.8,5.0,25 تا 45 دقیقه,تهران,پونک.بلوار عدل شمالی.نبش کمالی پلاک 45,35.766911612250304,51.332663297653205
354,44ee553c-5488-416d-8eab-af5f683ac87c,تهیه غذای اکسیر جوجه,3.4,5.0,25 تا 50 دقیقه,تهران,تهران، خیابان جمال الدین اسد آبادی، اسد آبادی چهارم ،نبش تقاطع چهلستون، پلاک 17,35.722170725581975,51.405168771743774
355,6e330a40-b6ff-4702-9e4c-b8f36194bcda,کافه رستوران ملو,0.0,0.0,25 تا 45 دقیقه,تهران,میدان هفت حوض، خیابان گلبرگ غربی، نبش خیابان 62، کافه ملو,35.73059312861038,51.490452289581306
356,30cb32e2-7e81-456c-ad96-820ceef9f92c,کافه رستوران لیدو پلاس,0.0,0.0,25 تا 45 دقیقه,تهران,ضلع غربی میدان هفت حوض، کوچه عظیمی نیا، پلاک 24,35.728964460354035,51.49305939674378
357,e5b8a641-d34a-4818-aa1e-6f3f10303893,کترینگ مهرتاب,0.0,0.0,25 تا 45 دقیقه,تهران,سعادت آباد، بلوار فرهنگ، خیابان داوود رشیدی، خیابان صوری، مسجد چمران، پلاک 9,35.77540762263347,51.38853907585145
358,125caf58-7bcc-418c-988e-08dde3689e57,رستوران ایوان ایرانی آپادانا,4.11,9.0,,تهران,خیابان فرجام‌ غربی،‌ نرسیده‌ به‌ باقری‌،‌ روبروی‌ بانک‌ سپه,35.73665897162361,51.51790201663971
359,1d0e433d-d839-4ea3-9645-2b7213ec6309,فست فود نارون,3.8,5.0,25 تا 45 دقیقه,تهران,خیابان انقلاب، روبروی ویلا، پلاک 850,35.70131121169425,51.41522705554963
360,67053bf8-a860-41dc-8fab-5acbd820f583,فست فود اپیک برگر,0.0,0.0,25 تا 45 دقیقه,تهران,شمس آباد، بالاتر از میدان ملت، خیابان نانکلی، پلاک 50,35.75773559813462,51.47661745548249
361,216b40d2-e291-4610-8fcf-21af798a7b84,رستوران همت,5.0,7.0,25 تا 50 دقیقه,تهران,تهران، میدان خراسان، انتهای خیابان طیب، پلاک 26,35.656367842278215,51.450793147087104
362,ee8e1493-e157-4969-bb20-a7d5ef6a4757,رستوران تهران شمال,0.0,0.0,25 تا 45 دقیقه,تهران,سعادت آباد، علامه شمالی، خیابان 18 ام غربی، پلاک 51,35.77885451553701,51.37616336345673
363,cd6e8773-24bc-494b-85f4-7bfe468cf5f0,تهیه غذای فاخر,4.68,37.0,25 تا 45 دقیقه,تهران,سعادت آباد، میدان کاج، سرو شرقی، خیابان بهزاد، پلاک 2، تهیه غذا فاخر,35.78259718456204,51.376222372055054
364,8157aad9-baa4-402c-98cf-e60fdbf6dae3,دیزی سرای دیدار,4.33,6.0,25 تا 50 دقیقه,تهران,اندرزگو، ابتدای قیطریه، خیابان کیارنگ، بن بست مقدم,35.79671764539356,51.44593298435212
365,379f45c8-338b-4e67-9be6-82a4d66b8f72,رستوران گلزار,3.78,41.0,30 تا 50 دقیقه,تهران,سلسبیل شمالی، پایین تر از دامپزشکی، پلاک 530,35.69267658957465,51.36977970600128
366,b27a7e82-6397-499a-9ddc-992021ce184d,کترینگ کته دیگ,3.98,43.0,40 تا 55 دقیقه,تهران,خیابان پیروزی، خیابان پرستار، ورودی پارک پرستار، پلاک 395,35.68984464816464,51.48362338542939
367,93c8fe61-6a93-4ff5-84f7-fe70cbd65c9e,  فود کمپانی,0.0,0.0,25 تا 45 دقیقه,تهران,خیابان ولی عصر، جنب سینما آفریقا، کوچه عتیقی نژاد، پلاک 22,35.716299775325304,51.407834887504585
368,eca3ce58-daba-497d-92a0-f6f0bbe4c75c,فست فود میم دونر,3.0,6.0,25 تا 45 دقیقه,تهران,میدان هروی،خیابان ضابطی (پناهی نیا)،کوچه خاک، پلاک 1,35.762956850838044,51.47635208442808
369,67967d9f-653f-4c32-ac52-0cfa3e7d9202,رستوران بلو لایف تهران,0.0,0.0,25 تا 45 دقیقه,تهران,دزاشیب، خیابان کریمی، کوچه حسین فلاح، پلاک 9,35.80581955222553,51.44340097904205
370,af513a57-6060-45ad-89b9-c6d79a19b887,تهیه غذای مهر آریا,2.33,6.0,54 تا 89 دقیقه,تهران,تهران، ابتدای اتوبان جناح، خیابان صالحی، طرشت شمالی، بن بست عابدینی، پلاک 3، واحد 1,35.71082041224495,51.344679594039924
371,d290cb53-dd22-4622-ba6d-5c06bbcb19e7,کترینگ پلو تاپ,0.0,0.0,25 تا 45 دقیقه,تهران,تهرانسر، بلوار لاله، خیابان بدخشان شمالی، خیابان جعفری، خیابان بازرگان، پلاک 2,35.70124586740935,51.26268982887269
372,af4273ba-a14f-4282-8ca8-10e27c4b680a,رستوران رستینو,4.0,12.0,25 تا 40 دقیقه,تهران,تهران، شریعتی، بالاتر از پل رومی، رو بروی موسیوند، پلاک 1916,35.798615502949005,51.43359903217061
373,0cd5bfed-bf00-43d1-ad41-b70cffc6dfe7,پیتزا پارک,4.0,24.0,25 تا 45 دقیقه,تهران,نبرد جنوبی، پایین تر از بلوار ده حقی، نبش کوچه نعیمی، پلاک 24,35.65516660716536,51.479395664791824
374,d542633d-bcaf-42d1-bcfd-d5a390754350,کترینگ شایسته,4.33,15.0,25 تا 45 دقیقه,تهران,خیابان مطهری، نرسیده به شریعتی، پلاک 13، طبقه زیر همکف,35.723699366421286,51.44186675548554
375,c9bd7024-768f-4e06-956a-918fe692a135,کترینگ مستر,0.0,0.0,25 تا 45 دقیقه,تهران,تهرانپارس، فلکه اول، خیابان شاهد، ساختمان بازار موبایل شمس، ورودی درب پارکینگ، طبقه زیرزمین، کترینگ مستر,35.725254107785645,51.5272468328476
376,30f72e6a-ef5c-455a-a9c5-59d0f830956f,کافه رستوران ولفزدن,0.0,0.0,60 تا 120 دقیقه,تهران,پاسداران، خیابان پایدارفرد، نبش بوستان‌دهم، پلاک 32,35.768556914632015,51.461977958679206
377,99a1c215-12e6-43ce-8458-5d49adb3e73f,کافه رستوران مانزا,4.0,4.0,25 تا 45 دقیقه,تهران,تهران، خیابان کریمخان، خیابان نجات اللهی،  خیابان اراک،  پلاک 35,35.708591076779804,51.41651276484482
378,2963104d-bbf3-475e-8ee7-73a872b02cf5,  در ب در پلاس,4.2,5.0,25 تا 45 دقیقه,تهران,شریعتی، بالاتر از پل سید خندان، رو به روی پارک شریعتی، کوچه پیروز، پلاک 48,35.74897212618392,51.44943058490754
379,2f79333d-c072-4671-ba5f-f8933cebca05,  کبابخانه موسوی,0.0,0.0,25 تا 45 دقیقه,تهران,بزرگراه شهید گمنام (جلال آل احمد) بین امیرآباد و چمران نبش کوچه جنت پ 2,35.724126161189794,51.384392380714424
380,ee8c4172-c733-4e68-bbf5-6658142d7597,رستوران مطبخ شمرون,3.63,19.0,25 تا 45 دقیقه,تهران,بلوار اندرزگو، خیابان سلیمی شمالی، خیابان اشکستانپور شمالی، کوچه خامی، پلاک 11,35.800724875321215,51.44781589508057
381,263892ff-4ce2-4b30-b74b-03c61ad53bff,  کباب سنتی بناب,3.8,5.0,40 تا 60 دقیقه,تهران,تهرانپارس، بلوار شاهد، نبش خان میرزایی، پلاک 68,35.73622788963288,51.53919339179993
382,0543d523-e426-4fde-9904-52360403c1f5,کترینگ ارغوان,4.4,116.0,25 تا 45 دقیقه,تهران,خیابان مطهری، خیابان کوه نور، کوچه هفتم، پلاک 28,35.727013498389645,51.422839164733894
383,3b7aaa34-951c-4a9f-a025-86fe96f6c668,  خروس,4.56,307.0,25 تا 45 دقیقه,تهران,بلوار اندرزگو، نبش عبدالهی جنوبی، پلاک 74.3,35.7998285960564,51.4500904083252
384,bf7b5253-936f-41da-886a-01140a8c1cff,جگر سرای آندراج,3.83,12.0,95 تا 145 دقیقه,تهران,خیابان نبرد، تقاطع ده حقی، پلاک 153,35.65752289952078,51.47989511489869
385,f068e7c4-4cbd-4bf7-be5b-6230969d418e,کترینگ آوا,3.72,58.0,25 تا 45 دقیقه,تهران,آرارات، بزرگراه رفسنجانی شرق، قبل از بزرگراه کردستان، شهرک فجر، بازارچه سوم، کباب آوا,35.77485923953054,51.40125274658204
386,0f6abc5c-1402-43a2-8ec7-515ae0d05354,رستوران غذای ایرانی طاق,4.45,22.0,25 تا 45 دقیقه,تهران,تهران، سعادت آباد، سرو شرقی، خیابان مجد، غذای ایرانی طاق,35.783193384171334,51.37756884098054
387,d7404de8-9f5c-42aa-87a0-9d085d456d77,کافه بستنی لویجى,0.0,0.0,25 تا 45 دقیقه,تهران,تهران، شهرک غرب، بلوار دادمان، بین کوچه معراج و میلاد، پلاک 147، بستنى لوییجى,35.76441747786783,51.3515192270279
388,db16267f-a709-42d7-936f-7a897a4937eb,کترینگ طعام یاس,0.0,0.0,25 تا 45 دقیقه,تهران,بریانک کوچه طالبی نمین بن بست اول سمت چپ,35.674315108575854,51.378630995750434
389,a020fd68-2afd-4f28-83a7-b5714a3c1a46,پیتزا تنوری پاپا,0.0,0.0,25 تا 45 دقیقه,تهران,تهران، خیابان پیروزی، خیابان پرستار جنوبی، خیابان صاحب الزمان پلاک 57,35.67732190521038,51.48368775844574
390,d178b926-de74-48a8-a919-dfc7085cb8be,فست فود فست ویچ,4.26,27.0,25 تا 45 دقیقه,تهران,چیذر، میدان امامزاده علی اکبر، ابتدای خیابان معصومی، نبش بن بست فلاح، پلاک 16,35.796853374396235,51.45816806674703
391,3439346d-38bb-4ea1-b793-8cb9079a99b5,غذای‌ایرانی بام,3.86,7.0,25 تا 45 دقیقه,تهران,تهران، نیاوران، بالاتر از مژده، خیابان همایون، خیابان مریم، انتهای صادق، پلاک 40,35.81717371941353,51.436030268669136
392,00edea55-1f5c-4e89-8cfb-424860eff05b,رستوران ضیافت نو,3.74,35.0,25 تا 45 دقیقه,تهران,نیایش شرق، قبل از کردستان، شهرک فجر، بازارچه دوم، طبقه اول,35.776151612784886,51.40272544696928
393,f1ceeef8-792d-4ef0-9950-8722cdcdd1dd,فست فود کهکشان,3.85,33.0,25 تا 45 دقیقه,تهران,خیابان پیروزی، روبه روی مجتمع کوه نور، پلاک 505,35.691759487249705,51.47424906492234
394,cbffe168-5bb4-4696-8dca-f95488648ea8,رستوران بین‌الملل سوشیران,4.9,21.0,40 تا 65 دقیقه,تهران,تهران، بلوار شهران، بین میدان اول و دوم شهران، شماره 119,35.76426803053912,51.28950297788834
395,8cec0360-ff00-4f30-acc8-9e91b2a09a82,تهیه غذای بهار نارنج,5.0,5.0,25 تا 45 دقیقه,تهران,تهران، سه راه افسریه، قبل از میدان آقانور، پاساژ خورشید، پلاک 400,35.632351944614896,51.486707925796516
396,cb720533-5292-4a1f-baef-31ce507aa810,فست فود رکورد,2.5,4.0,20 تا 40 دقیقه,تهران,تهران - خیابان جنت آباد جنوبی، نرسیده به آیت الله کاشانی، نبش کوچه دوم غربی، پلاک 40,35.73816217645379,51.30325436555723
397,58cbeea1-e716-4b70-a56c-847ee86b8a3e,کترینگ کوفته ریزه,5.0,6.0,40 تا 60 دقیقه,تهران,مفتح شمالی، انتهای خیابان زهره، نبش مدرس,35.72242429136327,51.4254379279737
398,9c633eeb-0976-40ab-9471-116fe05c2c83,فست فود دنیز,0.0,0.0,25 تا 45 دقیقه,تهران,اتوبان محلاتی، سمت بازار گل، ابتدای خیابان الله اکبر(میثم)، جنب تالار چهارباغ، فست فود دنیز,35.66503883884491,51.46885871799896
399,61f9da14-1c07-4eee-8f56-4e4047ee1ee9,تهیه غذای آریو,4.78,9.0,25 تا 45 دقیقه,تهران,میدان هفت تیر، خ لطفی، نرسیده به فجر، پلاک 77,35.72050994682512,51.423034071485745
400,440b6bcb-2f0a-4ce3-a8c2-c4f627451f9c,فست فود لیمو,3.31,13.0,25 تا 45 دقیقه,تهران,تهران، اشرفی اصفهانی، پایین تر از تیراژ، پلاک 146,35.74605704707203,51.33207069709898
401,54f34c93-0c8b-449f-9252-aa5f8f7abd0e,فست فود لیما,0.0,0.0,25 تا 45 دقیقه,تهران,تهران، خیابان نارمک، خیابان جانبازان شرقی، نبش کوچه ی هفتاد و چهارم، پلاک 115,35.731165529278414,51.48829327896238
402,1e4e24f2-46bc-42fe-962c-aab70a800758,فست فود اژدرلند,3.0,4.0,25 تا 45 دقیقه,تهران,سهروردی شمالی، پایین تر از چهار راه بهشتی، پایین تر از چهارراه زینالی، پلاک 308، فست فود اژدر لند,35.72816304209905,51.436792016029365
403,7784dfea-3c41-452f-90e7-d782b9ff0a89,کافه رستوران تارخ,0.0,0.0,25 تا 45 دقیقه,تهران,تهران، تهرانپارس غربی، خیابان مهرنامی (124)، برج مرجان، کافه رستوران تارخ,35.72246106806741,51.51492655233597
404,f2b5a10a-2577-4278-924d-d787ec0d5dcc,کترینگ ته چین نادیا,3.8,10.0,25 تا 45 دقیقه,تهران,تهران، سعادت آباد، بلوار کوهستان، خیابان امام صادق، کوچه درختی یکم، جنب دادسرای ناحیه 2، پلاک 10، ته چین نادیا,35.77443258071578,51.351642608642585
405,8ea22612-20f7-41f2-880b-570e6f100fe9,فست فود آربی برگر,0.0,0.0,25 تا 45 دقیقه,تهران,تهران، سهروردی  شمالی، خیابان بهشتی، نرسیده به خیابان صابونجی، پلاک 205,35.730990855282414,51.43380582288956
406,d7b2776d-eab9-435e-a65c-86f91fd97957,  ASIAN KITCHEN,4.6,5.0,30 تا 60 دقیقه,تهران,تهران، قیطریه، اندرزگو، خیابان سلیمی جنوبی، پلاک 51، آشپزخانه آسیایی,35.800098351073586,51.45256876945496
407,39557f1f-66ce-40a3-a5dc-4ab82bc9340a,رستوران ایتالیایی اوبسو شف,4.17,12.0,25 تا 45 دقیقه,تهران,سعادت آباد، پایین تر از میدان کتاب، خیابان طاهر خانی، خیابان باران ،پلاک 10,35.773556451897896,51.35541558254773
408,84ad8a9c-7b02-47c7-b64c-3d938652ba0f,فست فود آریمان,4.0,8.0,25 تا 45 دقیقه,تهران,تهران، جنت آباد شمالی، خیابان کوروش غربی، خیابان آزادگان، نبش کوچه ارسنجانی,35.775741293129705,51.3015621896193
409,3369b1d4-f5e4-4326-80c4-f11633ead8d0,فست فود آوان برگر,0.0,0.0,30 تا 60 دقیقه,تهران,ضلع شمال شرقی میدان شیخ بهایی ، تقاطع خیابان سئول و خیابان ونک غربی ، پلاک 192,35.76509506612196,51.397703289549106
410,5d40ab0b-9a5f-4bfd-bba8-3589c4792849,فست فود بلک برگر,3.8,10.0,25 تا 45 دقیقه,تهران,تهران، پاسداران، بین گلستان ششم و هفتم، پلاک 425,35.7736065642806,51.46306041599019
411,92d6b17e-9107-4a0c-abe0-56e9fcc1318a, آشپزخانه ایتالیایی هناس,5.0,9.0,25 تا 45 دقیقه,تهران,میدان تجریش، خیابان دربندی، پلاک 116,35.80524382524367,51.427175402204746
412,669f4f60-6579-4722-b52f-4cd1df38eba5,کترینگ تافته,0.0,0.0,25 تا 45 دقیقه,تهران,آیت الله کاشانی، بین خیابان رامین و گلستان شمالی، پلاک 256، پاساژ شبکه امید، طبقه اول، کترینگ تافته,35.72677833456873,51.32154285907746
413,0ed1699c-6a30-4105-ad5c-91c3fc25b40b,فست فود بلک برگر,4.5,16.0,25 تا 45 دقیقه,تهران,تهران، میدان نیاوران، خیابان باهنر، خیابان فیضیه، خیابان منظریه، پلاک 3133,35.81292999714459,51.462726462632425
414,bc190f77-1b48-4435-9b71-13050b3a3652,رستوران ایتالیایی لوانته,0.0,0.0,30 تا 50 دقیقه,تهران,بلوار فردوس شرق، خیابان رامین جنوبی، نبش کوچه آلاله، پلاک 44,35.7223195868873,51.318156756169635
415,6dc82e4a-e046-4040-b461-6f6ef38bc159,کترینگ آفتابگردان طلایی,4.75,8.0,25 تا 45 دقیقه,تهران,خیابان سبلان شمالی، پلاک 412,35.721084835727765,51.46251618818497
416,f8a00c06-d9ef-4a9e-8946-f42bc7258aad,رستوران اکبر جوجه (شهرک غرب ),4.2,5.0,25 تا 45 دقیقه,تهران,تهران - شهرک غرب - میدان صنعت - بلوار خوردین - خیابان ایران زمین - خیابان گلستان جنوبی - پلاک 29,35.75624243689706,51.37726843357086
417,28df8dd4-87e7-4512-b160-743572ae5c23,رستوران کندو کباب,0.0,0.0,20 تا 40 دقیقه,تهران,سعادت آباد - خیابان پاکنژاد - پایین تر از چهارراه سرو نبش 18 مترى مطهرى پلاک 4,35.776803226151145,51.36263429987594
418,249a5d5c-c94f-43ae-bcd8-348cd9806d45,مطبخ چلو ملو,4.6,5.0,25 تا 45 دقیقه,تهران,خیابان پیروزی، نبرد شمالی، جنب مسجد جعفری، پلاک 487، مطبخ چلو ملو,35.68190596262927,51.47988975048066
419,73a7c0e7-be66-4eef-a957-e9e9731252cc,فست فود شقایق,0.0,0.0,50 تا 100 دقیقه,تهران,میدان خراسان، خیابان خاوران، خیابان مخبر جنوبی، پلاک 129,35.664736180933815,51.452010869979866
420,7b62607c-2b99-4e28-bb10-7c0b52806bd3,تهیه غذای کسری,0.0,0.0,25 تا 45 دقیقه,تهران,ظفر، عمرانی، نبش کوچه نوروزی، پلاک 2، تهیه غذای کسری,35.77218449162111,51.432181298732765
421,d6311668-3e4e-49eb-8a4c-e77e52feb9ee,رستوران چینو سوخاری,0.0,0.0,45 تا 65 دقیقه,تهران,بلوار قیطریه، ضلع شرقی پارک قیطریه، خیابان استاد علی اکبر صادقی، پلاک 3,35.79450727356027,51.45064294338227
422,09dfdf08-c18d-4a7b-89ec-b1fe696a8403,رستوران استار نایت,0.0,0.0,25 تا 45 دقیقه,تهران,دریاچه چیتگر، میدان دریاچه، خیابان جوزانی غربی، مجتمع تجاری خلیج فارس، طبقه 2، واحد 100، استارنایت,35.75420326175557,51.20431192161051
423,1739b9a0-06b2-4e45-8f13-74333289a841,رستوران ژاپنی سوشی آی,4.82,22.0,25 تا 45 دقیقه,تهران,میدان تجریش، ابتدای خیابان فناخسرو، پلاک 7، سوشی آی,35.80786731342781,51.42972000001464
424,602cfdd2-8480-45cb-a2e0-a827b3ba778e,  FreshBox,0.0,0.0,25 تا 45 دقیقه,تهران,خ شریعتی بالاتر از پل صدر خ میرزاپور قبل از تقاطع قلندری انتهای پاساژ سهیل,35.78761034417904,51.4417326450348
425,e3e24490-bae8-4d54-9234-c818ff0f4a7f,فست فود بربر,0.0,0.0,25 تا 45 دقیقه,تهران,تهران، شهرک شریعتی، بلوار نیکوبین، پلاک 12 فست فود بربر,35.63573077448301,51.37246727943421
426,eda314ea-7aa9-4548-91cc-73fac7f977c8,کبابسرای شیخ بهایی,3.89,9.0,25 تا 45 دقیقه,تهران,ملاصدرا، خیابان شیخ بهایی جنوبی، نرسیده به همت، نبش کوچه 4 پلاک 10,35.752629434608835,51.396600045118255
427,12a5e1e9-b751-4021-a8fb-ce84792fdd33,فست فود تیک آبی,4.56,9.0,25 تا 45 دقیقه,تهران,ستارخان، خیابان صحرایی، ابتدای خیابان شکور، مجتمع آپادانا، ورودی فاز 4، فست فود تیک آبی,35.71888459967784,51.35083538945766
428,92671095-a6eb-4812-8301-b395995cbbcc,کترینگ لقمه,0.0,0.0,25 تا 45 دقیقه,تهران,جنت آباد جنوبی، بلوار لاله غربی، نبش کوچه ابراهیمی، پلاک 12,35.74653389292332,51.301968097686775
429,2843c670-9a1b-4df9-b092-ea6560c07fe8,جگرکی مستر باربیکیو,4.6,5.0,25 تا 45 دقیقه,تهران,میدان ونک، خیابان ملاصدرا، بین خیابان شیراز و خیابان شیخ بهایی، پلاک 143,35.756648077175086,51.39739993930562
430,221bbab4-e4d2-4ac1-8156-cf6d25fe8e52,فست فود هاتزیلا,3.69,49.0,30 تا 60 دقیقه,تهران,تهران، بزرگراه نیایش ، محله ارارات، شهرک فجر,35.776029853344845,51.40242218971253
431,8f858a92-c43c-4945-a16f-c1bfe72e43a6,رستوران مانی,0.0,0.0,60 تا 95 دقیقه,تهران,ضلع جنوب غربی میدان فردوسی، جنب بانک شهر، پلاک 24، واحد منفی یک,35.70109326106877,51.41886949539185
432,049a92aa-d2d3-4c2c-8363-0bc364adae80,آشپزخانه خاندان,4.2,10.0,25 تا 45 دقیقه,تهران,تهران، خیابان بهشتی، بعد از سهروردی، تقاطع صابونچی، پلاک 254، ساختمان آفتاب,35.73094440572139,51.43302261785721
433,b7cd3bd2-f2c6-4d17-b9e0-663b31edc868,کترینگ برکت,4.56,9.0,25 تا 45 دقیقه,تهران,انتهای ستارخان، خیابان خسرو شمالی، روبهروی تره بار صادقیه، مجتمع بهاران، طبقه زیر همکف، پلاک 7,35.72286305435379,51.347651481628425
434,6668940f-9442-4d35-a1ea-73eb82ee2180,کترینگ زرشک,5.0,4.0,25 تا 45 دقیقه,تهران,شهرک گلستان، میدان ساحل، کوچه میلاد چهارم، مجتمع کیهان بلوک6,35.75471428469082,51.2201875448227
435,83529c20-ec9d-4b15-8776-beed5b18aab8,فست فود دونر پارک,0.0,0.0,25 تا 45 دقیقه,تهران,ولنجک، بلوار دانشجو، خیابان گلریزان،روبروی پارک گلریزان، ساختمان شیشه ای، دونر پارک,35.8092542503087,51.39339119195938
436,1b717afa-af46-4e25-97ba-45d525e2ed06,کترینگ شایسته,0.0,0.0,30 تا 50 دقیقه,تهران,اتوبان نیایش، نرسیده به خروجی کردستان، شهرک فجر، بازارچه دوم بالای نانوایی سنگکی,35.77566452555978,51.40175111620921
437,89adbc3e-4b30-42e6-a5b0-f94c9ce10b62,ساندویچ پترو,0.0,0.0,25 تا 45 دقیقه,تهران,تهران، ولیعصر ، روبروی درب اصلی پارک ملت، نبش خیابان انصاری، برج ملت، واحد 46,35.77596229224585,51.41323434188963
438,326cc8dc-7e37-4765-9821-7dfe827faf29,رستوران هانزو,0.0,0.0,50 تا 80 دقیقه,تهران,تجریش فودکورت ارگ,35.8079946697998,51.426771283149726
439,96de9809-51d0-4dc8-9ab4-deb6ff074047,رستوران یکتا پخت گلفام,0.0,0.0,25 تا 45 دقیقه,تهران,تهران - جردن، خیابان گلفام، پلاک 60، ساختمان امیر، واحد 18,35.77668234031958,51.42455083318055
440,758a82ef-7e00-4dc5-bb7f-eff90e9ba29f,فست فود عربی  لحمه,2.6,5.0,25 تا 45 دقیقه,تهران,خیابان ملاصدرا خیابان شیرازی خیابان دانشور شرقی پلاک 20,35.76282626333389,51.39853579457849
441,4eca6ff1-2e76-488a-b8ea-66bfb07c22fb,کترینگ فونسا,0.0,0.0,25 تا 45 دقیقه,تهران,جردن، بلوار اسفندیار، پلاک 35، موزه امام علی، کترینگ فونسا,35.77071892258635,51.419701724080376
442,49e16058-9f6b-468e-9f65-56e6cb4d53d9,کترینگ چلو درباری,0.0,0.0,25 تا 45 دقیقه,تهران,تهران، میدان شیخ بهایی، خیابان دانشگاه، کوچه کارخانه، پلاک 3,35.767131185098656,51.39449106529356
443,2884cca6-9903-4f42-8396-2bf5256cc0db,فست فود فردی فود,0.0,0.0,25 تا 50 دقیقه,تهران,اقدسیه خیابان عزت الله انتظامی ( سپند )خیابان دستان خیابان کامران مجتمع تجاری صاحب قرانیه طبقه همکف واحد 10,35.80635116557755,51.479185856587726
444,93f6d716-4d77-4d55-9e97-1cb47f048a6f,فست فود ممل برگر,0.0,0.0,25 تا 45 دقیقه,تهران,بازار مبل ایران، چهار راه یافت آباد، بلوار معلم، روبه روی خیابان عباسی، پلاک 14,35.66092674788183,51.34133261628449
445,5dce182b-3694-4654-87a2-628793338ab5,غذای‌ایرانی فردی فود,0.0,0.0,25 تا 45 دقیقه,تهران,اقدسیه، خیابان عزت الله انتظامی (سپند)، خیابان دستان، خیابان کامران، مجتمع تجاری صاحب قرانیه، طبقه همکف، واحد 10,35.806506938778234,51.47919237613679
446,76442656-311f-4cce-af33-a1f2f6ce5aec,فست فود خانه سوخاری چندونه ای,4.0,4.0,25 تا 45 دقیقه,تهران,خیابان انقلاب، انتهای پل کالج به سمت ولیعصر پلاک 775,35.70149139264559,51.410713269724525
447,6f3da782-f3ab-467c-bb64-ecc10e299ae0,رستوران تمشی,0.0,0.0,25 تا 45 دقیقه,تهران,اتوبان حقانی، بلوار کتابخانه ملی، میدان حبیبی، باغ غذا تهران تمشی,35.75158283895759,51.42686605497148
448,6dfa04e5-5601-4b52-ba01-ff9324c1a13d,  مرغ سوخاری دی,0.0,0.0,25 تا 45 دقیقه,تهران,پاسداران,35.77010062560661,51.45957469940186
449,1dbb9a36-c62c-433e-a9b0-506aefffb51f,کترینگ پدر,0.0,0.0,25 تا 45 دقیقه,تهران,دریاچه چیتگر، میدان دریاچه، انتهای بلوار میعاد، برج مسکونی آرام(بیمه سابق),35.75100526799378,51.201395988464355
450,bacd8596-5e2a-479f-b6da-5a778d6a0c45,  حلیم و کباب طهران,4.01,585.0,45 تا 60 دقیقه,قم,فلکه رسالت، خیابان بسیج، نبش بسیج1,34.62486084189086,50.87639272212983
451,1f2bef45-09d6-4e29-abba-45f716570880,  آبلمبو,3.92,221.0,30 تا 60 دقیقه,قم,خیابان شهید فاطمی، روبه روی بوستان نجمه,34.6335239445726,50.86863684693527
452,220c0cdf-d9b5-4c83-a575-6c403f28d16d,تهیه غذای امید دلشاد,3.22,45.0,40 تا 70 دقیقه,قم,خیابان امام، بعد از چهارراه غفاری، نرسیده به سه راه خورشید، بین کوچه 63 و 65,34.64476706104531,50.87844192981721
453,6afe9430-5433-40e6-a3c0-36a745ea7fa7,فست فود نمونه,3.13,47.0,20 تا 40 دقیقه,قم,خیابان امام خمینی، نرسیده به میدان امام خمینی، جنب 16متری سعیدی، روبروی بانک ملی مرکز,34.66531268200422,50.87536275386811
454,f7946004-3f3f-44b1-879d-c95d05b64626,  مجموعه غذایی شهر,3.8,569.0,20 تا 40 دقیقه,قم,خیابان عطاران، بین کوچه 8 و 10,34.62158534778016,50.865835547447205
455,b774f7a4-171c-4ec0-8ceb-f71cdcdae00e,کافه رستوران سینا پلاس,4.19,196.0,30 تا 60 دقیقه,قم,شهرک قدس، نبش چمران شمالی، طبقه بالای بانک سپه,34.604865953786046,50.83120107563446
456,28284287-16d9-4778-9081-80ac9ea63968,  آبلمبو پیلوت,4.48,50.0,30 تا 55 دقیقه,قم,بلوار55متری عمار یاسر، کوچه 37، پلاک 47,34.64740468126288,50.89871048883652
457,dd62d558-29a4-49c8-b85d-f73bb8b2e01f,رستوران و فست فود آریانو,4.39,56.0,25 تا 50 دقیقه,قم,بلوار جمهوری نبش کوچه 30,34.624004458339265,50.870486497879035
458,0ee2760a-0489-4ef8-9021-f1602d9d3d9b,فست فود یاسر,4.3,1682.0,35 تا 55 دقیقه,قم,شهرک قدس، میدان مولوی، نبش میدان,34.59989186927352,50.839386284351356
459,bb22df08-b011-42d3-b47e-dac846242148,فست فود آقاجون,4.32,3462.0,50 تا 60 دقیقه,قم,هنرستان، خیابان بسیج، جنب زیر گذر بعثت,34.626502954699966,50.88688552379609
460,2b97edc1-7d2e-4b76-b530-8f3ffe6b1e52,رستوران خانه تاریخی یزدان پناه,3.86,590.0,55 تا 60 دقیقه,قم,خیابان 19 دی، انتهای کوچه 11,34.64778568015648,50.88988423347474
461,6b50af0e-3f4b-48d5-9279-a4065a9d74c6,رستوران بزرگ شاندیز,4.37,221.0,25 تا 45 دقیقه,قم,بلوار الغدیر، انتهای کوچه11,34.61268082429308,50.83349347114564
462,7bfbefb2-4b89-4859-8041-23855b85b7d0,رستوران یوشیتا,3.95,809.0,40 تا 65 دقیقه,قم,بلوار امین، نبش کوچه 16، مجتمع تجاری شهر، طبقه ی چهارم,34.62183697387988,50.8498227596283
463,145cfe7c-d7c1-42d2-b9a3-9dad3c236139,فست فود صفا,4.45,1403.0,30 تا 55 دقیقه,قم,صفاشهر، نبش میدان چهارده معصوم,34.60895931977471,50.838539437754676
464,4a728700-812b-42a3-bb4c-09f094c6892e,فست فود چیکا,4.44,387.0,30 تا 60 دقیقه,قم,خیابان حجتیه، جنب درمانگاه قرآن و عترت,34.63962446600686,50.874046087847105
465,39e374dd-8f16-4141-8e9a-30c9ebbc5d43,آبمیوه و بستنی دوپینگی,4.49,341.0,35 تا 120 دقیقه,قم,بلوار نواب صفوی، جنب میدان شهرداری,34.66739078911184,50.893100500688895
466,65c1a1d1-8cd9-48b3-8982-baabc831005b,فست فود دلفین,4.39,6799.0,35 تا 65 دقیقه,قم,سالاریه، نبش میدان میثم,34.61337838714176,50.8436268568039
467,57220117-7708-4cba-8589-d31f08f57b26,فست فود چیترچیکن,4.41,4012.0,40 تا 60 دقیقه,قم,میدان مفید، بلوار شهید صدوقی، بین کوچه 55 و 57,34.60490569227627,50.85584163665772
468,1ab43717-da33-4050-b2a8-a1a995ef3eea,رستوران مرتضوی,4.6,8958.0,35 تا 60 دقیقه,قم,ابتدای شهرک قدس، نبش کوچه 2,34.60544878307022,50.830033421516426
469,b05ebc33-2f08-42ac-82a6-064c0f8d5984,کافه رستوران فیلیا (الغدیر),4.2,1736.0,50 تا 75 دقیقه,قم,بلوار الغدیر ، نبش کوچه 49,34.58997151171766,50.81447660923005
470,dd76cf5a-919e-46de-b3f6-78935a61d9e5,رستوران شهر غذا,4.53,9461.0,55 تا 60 دقیقه,قم,بلوار امین،صفاشهر، انتهای کوچه 5,34.61174484467976,50.83607643842698
471,447e3cbc-f1f6-451d-b675-940b4a8ee0ac,فست فود یوشیتا,4.29,7520.0,35 تا 65 دقیقه,قم,بلوار امین، نبش کوچه 16، مجتمع تجاری شهر، طبقه چهارم,34.62179282900529,50.84980130195618
472,ee76d9ea-6bdc-4b27-9476-e7c3f9205c93,مجموعه غذایی پلاس,3.93,2641.0,45 تا 75 دقیقه,قم,صفاشهر، بعد از کوچه 4، جنب آژانس تلفنی صفا,34.611559413503954,50.83659410476685
473,fd80b5aa-89d5-4e4d-8b23-8ab165c1f2c6,پیتزا چترا,3.91,1020.0,50 تا 120 دقیقه,قم,خیابان آذر، بین کوچه 42 و 44,34.62908524378293,50.906481742858894
474,96be6978-c4ca-40b0-8b41-e3950327b00c,مجموعه غذایی اسپرانتو,4.23,2690.0,45 تا 85 دقیقه,قم,سالاریه، خیابان سجاد شرقی، نرسیده میدان لاله,34.61120032320305,50.84406971924182
475,330c6fe8-7895-4029-85b3-512aeb7c1e36,فست فود جعفرآقا,4.15,3039.0,30 تا 50 دقیقه,قم,باجک، میدان جهاد، نبش میدان جهاد,34.653140259110586,50.89597016572952
476,10394b86-6e63-4fa7-a761-fb29bd482bf4,فست فود خانه پنیر,4.42,5168.0,30 تا 50 دقیقه,قم,بلوار صدوقی، بلوار بوعلی، نبش میدان شهید دستغیب,34.61919486178099,50.8568474650383
477,11fa1908-555a-4823-b78c-8500a1495c8a,مجموعه غذایی کیپو,4.24,10438.0,50 تا 65 دقیقه,قم,بلوار صدوقی، ابتدای میدان مفتح,34.62845430086791,50.86175825446845
478,7b830ee8-dfc5-46ba-9aba-a7a6d525c501,فست فود کاروس,4.5,6001.0,45 تا 55 دقیقه,قم,خیابان مصلی قدس جنوبی، بعداز فروشگاه کوثر، نبش کوچه52,34.62476519829781,50.849107504327556
479,fd2d4f0c-2ff0-41b9-a88d-e87dc47b8a59,رستوران البرز,4.43,1767.0,45 تا 60 دقیقه,قم,بلوار امین، نبش کوچه 47,34.621132860330405,50.847875475883484
480,c7c7dbd7-23f1-4f3a-a8ea-5f99a1239086,پیتزا گلین,4.12,1118.0,50 تا 55 دقیقه,قم,خیابان امام، 20متری شهید بهشتی، بعد از 4 راه چمران، جنب داروخانه دکتر اکرمی، پیتزا گلین,34.66182588945092,50.883326567709446
481,bba92bd8-a106-4070-bb43-69b65cee0485,کبابی فدک,4.3,3233.0,55 تا 70 دقیقه,قم,خیابان فاطمی، ک 17، رو به روی نانوایی,34.62766683379357,50.873360632831464
482,a3b96c1d-9f97-41fa-a9dd-ea430787dc29,  بستنی داداش علی,4.35,12874.0,35 تا 85 دقیقه,قم,بلوار صدوقی، نبش ک 13,34.62159417677905,50.859580636024475
483,4b4c385a-c7fe-4fc2-a115-97d12f2dce58,  دامزی فود,4.34,1360.0,25 تا 55 دقیقه,قم,سالاریه، نبش فلکه دفاع مقدس,34.617708664346736,50.845496624724554
484,e5d3c8ad-15cc-461b-8b9a-edd5e429ba29,تهیه غذای نامدار,4.29,4867.0,35 تا 60 دقیقه,قم,خیابان عطاران، خیابان مفتح، بین کوچه 15 و 17,34.623067723509344,50.86665067083233
485,7f8b7de5-4c3b-4628-a249-61928becf8e4,غذای خانگی چاشتینو,4.37,6039.0,45 تا 55 دقیقه,قم,قم، خیابان عطاران، روبه روی بلوار عراقی، غذای خونگی چاشتینو,34.62174162102912,50.8659117219213
486,7ee19ccf-a44f-462c-b3ce-02037f57b562,فست فود آرین,3.78,162.0,30 تا 55 دقیقه,قم,بلوار آزادگان، بلوار بهشتی، روبه روی بانک ملی، نبش کوچه 9,34.668313787324664,50.881000757217414
487,b2775218-f938-486a-bbdc-ffa97a56deea,  مرمرفود,3.83,2059.0,55 تا 65 دقیقه,قم,خیابان شهید صدوقی، میدان شهید دستغیب، ابتدای خیابان مهدیه,34.6194725411822,50.856603384017944
488,49f41cb7-dc2e-471a-8584-95714ef9663b,فست فود عالیتا,3.82,311.0,30 تا 65 دقیقه,قم,بلوار امین بین کوی 20 و 22,34.62087902482718,50.848283171653755
489,ace32f18-a194-4384-b4c4-3b28b6274984,رستوران بیست,4.29,1095.0,25 تا 60 دقیقه,قم,آزادگان خیابان مرصاد رستوران و سالن پذیرایی بیست,34.67463492708099,50.88889724145702
490,6a47cd1a-76cb-4132-be71-9f8b31232896,فست فود فیله,4.17,957.0,40 تا 50 دقیقه,قم,55 متری عماریاسر، نبش کوچه 37، فست فود فیله,34.647933960395534,50.89762508869171
491,786d157f-fc2d-4ad5-821e-47b93c3d21f0,کترینگ نمونه (بلوارامین),4.22,2926.0,45 تا 65 دقیقه,قم,بلوار امین، بین کوچه 13 و 15,34.62746083883073,50.85767388336536
492,0ac48679-5dd3-4b89-bd27-4c1d11d0bda7,کبابسرای سلطان,4.37,430.0,55 تا 70 دقیقه,قم,خیابان شهید کریمی، 20 متری حضرت ابوالفضل,34.599183644942684,50.86297273592209
493,6662e7be-d734-4dff-b145-9898e640831e,فست فود گود فود,4.32,2440.0,35 تا 60 دقیقه,قم,بلوار الغدیر، بعد از پمپ بنزین، فودکورت رنگین کمان,34.609940766728634,50.83214424470499
494,77d21e99-8cf2-418d-ae6a-4f550be54089,نان داغ کباب داغ بهشت,4.29,297.0,30 تا 50 دقیقه,قم,بلوار شهید کریمی، خیابان لقمان، بین کوچه4 و6,34.59991566458553,50.86433649121319
495,3c339815-bfff-4347-90a2-570b3c474e71,  غذای دریایی ناخدا مهران,4.67,445.0,35 تا 60 دقیقه,قم,بلوار جمهوری، بعد از بیمارستان ولیعصر، نبش خیابان قیام,34.61394447790117,50.878727435774636
496,e7f1f770-6ed7-4b5d-b3ae-324ce52caede,پیتزا درکیا,4.49,466.0,25 تا 55 دقیقه,قم,شهرک قدس، آوینی شمالی، نبش کوچه 2,34.598220527674016,50.84518253803254
497,4de29521-910a-427c-b008-d9b0b661e7fc,مجموعه غذایی جورابچی,4.22,1393.0,45 تا 70 دقیقه,قم,خیابان ساحلی، نبش کوچه 70( انتهای کوچه 53 بلوارامین),34.61803601414879,50.841376483440406
498,ddef5892-d03d-44f5-9408-86fc18bccf53,کترینگ تشریفاتی استقلال,4.4,2819.0,35 تا 50 دقیقه,قم,بلوار عماریاسر، نبش کوچه 9,34.64344748396002,50.89109659194947
499,309debe5-84d2-4259-a0c4-61360a5aa6be,تهیه غذای سالم,3.85,1085.0,40 تا 120 دقیقه,قم,بلوار فردوسی، جنب فلکه قلم، تهیه غذای سالم,34.60887834146944,50.87238818407059
500,df7f6991-ce15-43d1-98ee-2551b1227fcc,رستوران شقایق,4.35,953.0,35 تا 50 دقیقه,قم,خیابان مصلی، بعد از کوچه 4، پلاک 640,34.63059043846035,50.860343724489226
501,b49e316c-2065-45a7-beb0-3d9e962ba79a,تهیه غذای الهیه,4.51,2710.0,50 تا 70 دقیقه,قم,خیابان صدوقی، نبش مسجد چهارده معصوم,34.61711333913086,50.85847556591035
502,ead12930-fd95-4bac-b253-6553be460a88,فست فود هیما,3.87,651.0,55 تا 75 دقیقه,قم,پردیسان، بلوار 22 بهمن، انتهای خیابان اقلیمی، جنب مجتمع علوم پزشکی,34.54348704898292,50.80528736114502
503,b49b7921-b484-4758-ace1-09531f15a400,فست فود قاصدک,4.18,679.0,40 تا 75 دقیقه,قم,بلوار شهید بهشتی، رو به روی بانک ملت,34.66872763301065,50.881750434637084
504,b219cc78-a88c-4825-b456-28d31eb764a8,تهیه غذای مدیران,4.17,1579.0,45 تا 80 دقیقه,قم,شهرک قدس، خیابان آوینی، نبش کوچه 16,34.59795779059872,50.837565064430244
505,2948944d-f71a-4b2a-b58f-b76181951e71,رستوران قوام,3.72,822.0,25 تا 60 دقیقه,قم,بلوار سمیه، ابتدای کوچه 18,34.631919048020386,50.88385462760926
506,3c496f86-fca2-4770-bfad-75812225de3d,رستوران کریشک دنر,4.13,1929.0,40 تا 65 دقیقه,قم,سالاریه، میدان میثم، ابتدای خیابان اقاقیا,34.613280154753426,50.8437602967024
507,7f3e4224-eeb4-4f91-80fd-407fdcb25424,فست فود پیتزا پیتزا,4.52,2163.0,35 تا 60 دقیقه,قم,بلوار امین، حدفاصل کوچه 22 و کوچه 24,34.6205982597567,50.84778320782789
508,335cd9f7-5913-4868-879b-21c3461d33da,فست فود شادی,4.22,143.0,40 تا 55 دقیقه,قم,45 متری شهید صدوقی، بین کوچه 26 و 28,34.61846718102552,50.859274864196784
509,fcadbad7-7875-4fe5-88ae-bb27d88f5be7,فست فود توپولی,4.13,736.0,40 تا 60 دقیقه,قم,بلوار امین، نبش کوچه 43,34.621708953678855,50.8489751815796
510,0649c085-efdf-46bd-8071-0f96b6fe3457,فست فود چارمین,4.12,2513.0,65 تا 85 دقیقه,قم,قم بلوار الغدیر، روبروی دانشگاه قم,34.60105980136607,50.82467302680017
511,3a62f263-23d7-43f4-acec-4f085535e94d,فست فود آویشن,3.81,285.0,40 تا 70 دقیقه,قم,خیابان توحید، نبش کوچه 25,34.64582292825394,50.85754483938217
512,32ff3c80-277f-48c6-b2d0-fe8ada0416db,فست فود دوفر,4.38,743.0,55 تا 85 دقیقه,قم,سالاریه، خیابان سجاد غربی، پلاک 103,34.61223147693677,50.84193110349589
513,eca87b34-c9e8-429a-88e6-cb90d42f8c5b,فست فود هشتگ,4.3,288.0,35 تا 65 دقیقه,قم,نبش میدان زین الدین,34.67368313082323,50.87409734711402
514,6339833a-4d20-4eeb-900b-e9514d6af2ca,ساندویچ نون سفید,4.48,842.0,25 تا 50 دقیقه,قم,خیابان فاطمی(دورشهر)، جنب کوچه 16,34.62942660037952,50.872141123545596
515,2ed3dbe1-7933-4939-beba-8fb5520e47b0,  تهیه غذا و کترینگ خاتون گیلان,3.99,220.0,55 تا 85 دقیقه,قم,قم - هنرستان، خیابان نجف زاده، بعد از چهار راه دوم، پلاک20,34.623894098991315,50.88576436042786
516,c2836b98-e70a-4055-ba2e-ab6a71b5a6d9,تهیه غذای شهر ما,4.33,1226.0,35 تا 60 دقیقه,قم,قم، 20 متری شهید بهشتی، 24 متری مطهری، روبه روی آموزش و پرورش ناحیه 3,34.66628953130829,50.87763833973441
517,9348bfe8-d7fd-4dd5-9cb7-3a12831aa343,رستوران بین المللی ارزندی,4.31,1003.0,40 تا 70 دقیقه,قم,بلوارامین، بین کوی22 و24,34.62049054464064,50.84765017032624
518,a209fa6b-bdf7-4af9-ae56-128e95202320,رستوران همه چی کباب,4.27,135.0,20 تا 60 دقیقه,قم,بلوار الغدیر، روبروی بوستان علوی، لاین کندرو، جنب کوچه 45,34.59143767076598,50.816053748130805
519,b909e97c-0f5c-4e67-b6f0-ea774492fc43,فست فود فامیلی,3.85,751.0,40 تا 55 دقیقه,قم,قم، خیابان صفائیه، کوچه 38,34.63404764805102,50.86875714361668
520,20e3ac95-f0b8-485d-b63c-6f9fa01eb5ed,تهیه غذای طعم برتر,4.16,1486.0,45 تا 60 دقیقه,قم,بلوار بسیج، نبش ک 39,34.63054154718694,50.89476607718098
521,c4cfb259-5cf8-4a40-9284-92feb569ea8c,تهیه غذای شوکا,4.19,387.0,40 تا 65 دقیقه,قم,بلوار جمهوری ، بین کوچه 36 و 38,34.62226517794477,50.87237745523453
522,8a711fae-4060-49c6-90b1-6a03c7fdf942,کافه بیکری آفرینان,4.37,296.0,20 تا 55 دقیقه,قم,سالاریه، نبش میدان لاله، کافه بیکری آفرینان,34.610557194980395,50.84537565708161
523,22244f6a-d906-48f3-bee3-49cde7ab5307,گروه غذایی لاجوردی,4.29,2000.0,50 تا 60 دقیقه,قم,بلوار15خرداد، بین خیابان حائری و کوچه 2,34.651991263020975,50.89857459068299
524,0f87d634-558e-4d73-9fec-f2853749d5d3,کترینگ غذای خوب,4.05,935.0,45 تا 65 دقیقه,قم,بلوار جمهوری، نبش خیابان قیام,34.613912592701766,50.87844192981721
525,6cfeede8-d34e-415b-b251-1784f55b8b6a,مجموعه غذایی زعفرانیه,4.31,435.0,40 تا 50 دقیقه,قم,خیابان سمیه، نبش کوچه 12,34.630811139196524,50.88291585445405
526,3e56773c-1076-4ded-9f4d-499c46736645,کترینگ تالار زیتون,4.02,200.0,20 تا 40 دقیقه,قم,خیابان 19 دی، نبش بلوار زیتون,34.66121808490594,50.909212231636054
527,65f0e75a-9f1e-43b8-84e6-053029a9efe8,فست فود باما,4.26,2838.0,35 تا 45 دقیقه,قم,بلوار بوعلی،نبش میدان شهید دستغیب، فست فود باما2,34.61857129339923,50.85662283003331
528,adfc4870-5ba9-4a60-9123-071f3c7822d8,فست فود باما,4.26,1828.0,35 تا 45 دقیقه,قم,خیابان 19 دی (باجک)، نبش کوچه 42، پلاک 552,34.65223838402358,50.894701480865486
529,c448e397-825a-4f6d-bed8-b651d97280ce,فست فود قصر,4.13,1430.0,40 تا 70 دقیقه,قم,بلوار جمهوری، بعد از بیمارستان ولیعصر، نبش پل مدافعان حرم,34.61910436188171,50.87490141391755
530,c01b0b0d-2f84-454a-852e-d034a1296837,رستوران مدائن,4.61,907.0,20 تا 40 دقیقه,قم,بلوار امین، روبه روی صدا و سیما، بین کوچه 17 و 19,34.62595411577246,50.85556745478244
531,dd51518c-46da-4154-87be-dc43e7281a3e,  دیزی بار,4.09,450.0,55 تا 60 دقیقه,قم,بلوار الغدیر، بعد از پمپ بنزین صفاشهر,34.61135632174094,50.834759473800666
532,655c07e9-9791-455e-a2a5-b2f5280c238a,پیتزا مامک,4.08,324.0,20 تا 40 دقیقه,قم,45 متری صدوق، میدان میرقیصری,34.62209742816198,50.86096465587616
533,852d1f48-5cac-4c13-b936-961be15a7d8a,فست فود شمرون,4.22,18.0,20 تا 40 دقیقه,قم,بلوار توحید، نبش کوچه32,34.64812646956877,50.85132956519374
534,fa7f89f2-7796-442a-98b8-dfad48ef3d4a,کافه رستوران لیان,4.13,379.0,40 تا 75 دقیقه,قم,خیابان صدوقی، بلوار عطاران، 30 متری مفتح، نبش کوچه 15,34.623145417306255,50.866540431943584
535,80916fb7-7052-4e09-9803-47796eeda3ac,فست فود کتلت شیرازی,4.0,589.0,20 تا 40 دقیقه,قم,بلوار صدوقی، 20 متری امام حسین، خیابان شهید شاه آبادی، نبش کوچه 3,34.611271633174596,50.86469097581359
536,d3591992-7150-4014-9e28-bdc29efff709,فست فود خاص,3.84,83.0,25 تا 50 دقیقه,قم,55 متری عماریاسر، بین کوچه19 و 21,34.647500789249726,50.89698195442907
537,ca959ece-26d1-4e0b-89b0-3ea386df7b0e,آش و حلیم سید حسین,4.2,431.0,45 تا 80 دقیقه,قم,خیابان 45 متری صدوق(زنبیل آباد)، نبش کوچه 35,34.611815485018745,50.85745096206666
538,da469b7d-0582-4554-a414-d48259ad085a, مرغ بریان ذغالی یک,4.29,62.0,30 تا 50 دقیقه,قم,خیابان شهید صدوقی(زنبیل آباد)، نبش خیابان امام حسین(ع),34.61361237843,50.858260989189155
539,305cc60d-a8db-4c8d-abe4-f37738c6aff4,رستوران گردان سیرنگ,4.14,14.0,20 تا 40 دقیقه,قم,میدان سعیدی، مجتمع سیرنگ,34.64989070475441,50.87815046354081
540,2b55b156-1508-4dc1-b119-c2a89ba187ee,  فلافل پنگوئن,4.07,148.0,20 تا 40 دقیقه,قم,خیابان صفائیه، نبش کوچه38,34.634020061567426,50.8686339846463
541,200f554a-380d-43db-a81a-bd2d1b6ff443,  بابک بریانک,3.82,68.0,20 تا 40 دقیقه,قم,خیابان دورشهر(فاطمی)، بین کوچه 19 و 21,34.628684050256346,50.87259531006567
542,ea3f7be0-054c-4cf8-8313-4075815c3e6a,فست فود مستر پیتزا,4.5,12.0,30 تا 55 دقیقه,قم,خیابان صفائیه بین کوچه 31 و 33,34.63543889148615,50.87078434880824
543,232a5985-89d9-4823-a1df-2c11ef961a22,رستوران امیر,4.31,70.0,20 تا 40 دقیقه,قم,پردیسان، خیابان دهلاویه، مسجد حضرت امیر المومنین(ع),34.55495216470065,50.812540054321296
544,f5e3e587-bf10-482e-bd0d-11af53d8c44c,  کربلاویچ,0.0,0.0,20 تا 40 دقیقه,قم,بلوار صدوقی، خیابان امام حسین، خیابان قرنی، انتهای کوچه6,34.61356970046353,50.866785049438484
545,c84cff42-42d8-438b-b3f3-ef888d603f84,مجموعه غذایی باهم,3.7,80.0,25 تا 50 دقیقه,قم,بلوار زائر، جنب پل شهید مصطفی خمینی، جنب بوستان قائم,34.638829043929604,50.868496894690914
546,da061d8b-8447-42ab-a240-e5df15de26c0,  گنده گنده,3.89,133.0,25 تا 50 دقیقه,قم,سالاریه، خیابان یاسمن، خیابان نسترن، نبش کوچه9,34.61174386380306,50.85236906983483
547,6be61ed5-e6c4-4f17-965c-81cb235ed0d6,فست فود ناپولی,3.74,27.0,20 تا 40 دقیقه,قم,پردیسان، خیابان استقلال، کوچه2، جنب مسجد امام محمدباقر,34.540825996947405,50.82019686786225
548,fcfbb852-0e48-41dc-92bd-aceb1576151c,فست فود شوک,4.18,71.0,20 تا 40 دقیقه,قم,هنرستان ، حدفاصل بین میدان رسالت و زیر گذر محمود نژاد ، نبش بسیج 8,34.623783739496574,50.87785184383393
549,9c3690eb-3b64-48b6-ae47-a0c9bcf94d83,تهیه غذای پنجاه چهل,3.94,269.0,20 تا 40 دقیقه,قم,پردیسان، خیابان سلمان، نبش کانال، بازارچه همشهری,34.55774481090656,50.80253541469575
550,43d37377-2b39-4e04-b638-65c237643403,کترینگ اقتصادی ضیافت,4.23,362.0,30 تا 50 دقیقه,قم,بلوار امین، خیابان مصلی قدس جنوبی، انتهای کوچه 26، زیرزمین مسجد المهدی(عج),34.62778307386354,50.856286883354194
551,3fda3b2b-7fa9-4737-8fcc-05b1731b59a8,کبابسرای دوستی,4.2,98.0,20 تا 40 دقیقه,قم,بلوارشهید کریمی، بنیاد(خیابان ایثار)، روبه روی کوچه 5,34.59464149153179,50.86480289697648
552,1b6d4800-0e6e-42bc-a6a5-c44046274c94,فست فود پیچک,4.51,69.0,40 تا 60 دقیقه,قم,بلوار شهید کریمی، نبش حقانی,34.59796882998835,50.86738586425782
553,b0f7bf06-9096-452f-be99-abc9ea3058b2,کترینگ نمونه (شهرک قدس),4.32,182.0,20 تا 40 دقیقه,قم,شهرک قدس، نبش ولیعصر 44,34.599222895100645,50.84209799766541
554,e0b4abbe-5c24-4770-88d3-96f6f226700b,رستوران الف,4.03,593.0,30 تا 60 دقیقه,قم,بلوار امین، میدان ارتش، (ایران مرینوس)، جنب دوز دوزانی,34.61612884682044,50.84011852741242
555,4fa01707-e42d-4464-ac14-df417c0293a9,فست فود لیمون,4.71,55.0,25 تا 45 دقیقه,قم,پردیسان، خیابان البرز، نبش کوچه 21,34.554933510716886,50.8038318148465
556,bbde5b7f-bb99-493c-b125-e61c1380e742,پیتزا الیاس,4.4,215.0,25 تا 50 دقیقه,قم,میدان میثم ابتدای خیابان اقاقیا,34.61296983208045,50.843522418290384
557,c40c341c-182f-4fa1-ab0a-6d00dca29fe5,رستوران و فست فود ایران 16,4.43,1697.0,35 تا 55 دقیقه,قم,دورشهر، بین کوچه 3و5,34.632114605652774,50.8694139792624
